id,nome,ano_registo,type,n_reg,lat,lon,score_global,score_location,score_price/quality
1,metro apartment,2016,Apartamento,35375/AL,41.1525537929996,-8.610274113044303,6.9,8.4,6.2
2,be happy flat,2016,Apartamento,23120/AL,41.154861305321965,-8.610285506600391,9.2,9.3,9.0
3,camões apartment,2016,Apartamento,28842/AL,41.155396693414026,-8.61022104378503,9.4,9.1,9.6
9,estudio 312,2016,Apartamento,35922/AL,41.15868014167162,-8.597245262035361,,,
13,the nature mezzanine,2016,Apartamento,30839/AL,41.1497808696591,-8.601977714137764,9.5,9.1,9.2
14,walkable down town apartments,2016,Apartamento,35391/AL,41.153079339599685,-8.602564619638866,9.4,8.6,9.4
19,apartamento francisco,2016,Apartamento,36276/AL,41.16207004758708,-8.644394171562858,7.2,7.5,7.4
21,214 porto,2016,Estabelecimento de hospedagem,33628/AL,41.14840279597224,-8.62415486947531,9.3,8.9,9.1
27,fonsi house,2015,Apartamento,19451/AL,41.15204501660713,-8.604209794520843,9.4,9.2,9.5
31,sb1,2015,Apartamento,21988/AL,41.15126205854051,-8.606318550433764,9.1,9.3,8.9
32,welcome porto,2015,Apartamento,23047/AL,41.15272501059132,-8.60542406040286,8.8,9.4,8.6
36,alojamento ferreira borges,2016,Apartamento,35755/AL,41.14230104484792,-8.615037910049379,7.9,9.6,7.3
40,dehouse,2016,Apartamento,25984/AL,41.15833945797129,-8.608542527479278,9.7,9.2,9.7
41,oporto happiness apartments,2016,Apartamento,33112/AL,41.1588865472209,-8.608704648048317,9.3,9.1,9.4
44,gardenia apart hotel,2016,Moradia,37226/AL,41.15115455073844,-8.601438346310042,9.6,9.4,9.4
45,sc1,2016,Apartamento,34175/AL,41.15111111801307,-8.60589537629548,9.3,9.5,8.8
47,brigitte aurran,2013,Moradia,5406/AL,41.152016965454344,-8.61223522386419,,,
48,porto vintage guesthouse,2015,Estabelecimento de hospedagem,13105/AL,41.152515057894455,-8.611845708663365,-1.0,9.1,8.8
49,gz hostel,2012,Apartamento,6294/AL,41.15825785167329,-8.612357353486397,7.5,7.6,7.8
53,são francisco apartments,2015,Apartamento,14569/AL,41.14205261803146,-8.618988447623954,8.9,9.2,8.8
54,porto insight apartments,2015,Apartamento,7979/AL,41.14311432801087,-8.612612362822597,9.5,9.7,9.2
55,holidays homes - bainharia,2015,Apartamento,19748/AL,41.14338070961233,-8.612357897816048,8.3,9.4,7.8
59,dear porto guest house,2013,Estabelecimento de hospedagem,6815/AL,41.15270328503477,-8.604633160706301,8.6,8.9,8.6
63,my home in porto ii,2016,Apartamento,37939/AL,41.16290227613205,-8.62333576585072,9.2,8.3,9.0
64,globo,2016,Apartamento,32947/AL,41.16350249498772,-8.613248273978503,7.7,7.4,7.6
69,t0 house,2016,Moradia,26235/AL,41.14787228874104,-8.601062410888064,9.1,8.8,9.3
71,oporto4you apartments - marquês 275,2016,Apartamento,34577/AL,41.16137261564166,-8.601642651349803,9.3,8.6,9.4
78,residencial d.duarte i,2011,Estabelecimento de hospedagem,12275/AL,41.145785727943434,-8.597590412703623,7.4,8.0,7.7
84,"delfim silva & duarte, lda",2010,Estabelecimento de hospedagem,6939/AL,41.15512339789347,-8.603039114464323,8.3,7.9,8.4
85,bela star - pensão residencial,2012,Estabelecimento de hospedagem,6218/AL,41.15637051354099,-8.602123763360987,6.4,7.0,6.7
91,boavista guest house,2010,Estabelecimento de hospedagem,5739/AL,41.15648100475968,-8.62121280915659,-1.0,8.3,8.4
93,so cool hostel,2013,Moradia,6686/AL,41.15668872286575,-8.622559619165294,8.8,8.4,8.9
98,santo ildefonso,2015,Apartamento,20719/AL,41.14609456784561,-8.60535564734016,7.8,8.9,8.3
107,marfim guesthouse,2010,Estabelecimento de hospedagem,5671/AL,41.15490758332925,-8.616318687426498,6.4,7.3,6.3
109,carla calçada,2015,Apartamento,16680/AL,41.14316764363747,-8.602869504308577,7.0,8.2,6.5
110,residencial porto novo,2012,Estabelecimento de hospedagem,7052/AL,41.143564560284695,-8.60410453674267,6.9,8.1,7.0
111,residencial dom filipe i,2010,Estabelecimento de hospedagem,5905/AL,41.144560425911266,-8.60601372589697,7.5,8.7,7.4
112,fernando manuel simões do vale,2015,Apartamento,14956/AL,41.14465683869199,-8.606331122218828,-1.0,9.0,7.6
113,casa 45,2015,Estabelecimento de hospedagem,9580/AL,41.15036366352577,-8.613594148668092,-1.0,9.6,9.3
116,apartamento coração da sé porto,2015,Apartamento,16682/AL,41.1437022425041,-8.608532744314404,9.7,9.8,9.5
117,citydrops-hostel unipessoal lda,2014,Moradia,6384/AL,41.15407383027894,-8.607524186310032,7.9,8.3,8.2
123,best guest hostel,2015,Estabelecimento de hospedagem-Hostel,20147/AL,41.14444291212801,-8.612116353841166,9.0,9.7,8.8
124,oporto invictus hostel,2010,Estabelecimento de hospedagem,2489/AL,41.149757305209846,-8.614998441498804,8.8,9.2,8.7
130,portovivo,2016,Apartamento,34963/AL,41.154286431378566,-8.607876979907306,9.1,8.9,9.1
131,nuno,2016,Apartamento,23111/AL,41.15319774240369,-8.607864064190517,8.8,8.9,8.8
139,miss opo,2016,Estabelecimento de hospedagem,31192/AL,41.14554213704995,-8.613150237855125,8.5,9.5,8.1
142,casa dos caldeireiros,2016,Estabelecimento de hospedagem,23798/AL,41.14495825415399,-8.614107697209574,9.4,9.7,9.3
143,t0 no porto,2016,Apartamento,34325/AL,41.14494268191418,-8.61516483928891,8.3,8.8,8.5
146,bc hostel & suites,2016,Estabelecimento de hospedagem,31936/AL,41.16247328779719,-8.618822988782993,8.5,7.4,8.5
150,being porto hostel,2016,Estabelecimento de hospedagem-Hostel,23970/AL,41.142647465751004,-8.615618821463816,9.1,9.6,8.9
156,yellow tiles,2016,Apartamento,37906/AL,41.155477322483655,-8.615315883064214,8.5,8.7,8.3
160,casa dos loios,2014,Estabelecimento de hospedagem,6630/AL,41.14505895111866,-8.612206080106352,-1.0,9.8,8.7
163,oporto tourist apartments - são domingos,2011,Moradia,5599/AL,41.14300089293376,-8.614562127824568,9.2,9.8,8.9
164,cale guest house,2012,Moradia,5907/AL,41.142916143021345,-8.615357890868378,-1.0,9.8,9.2
167,100 contos,2015,Moradia,11085/AL,41.150107849164,-8.618124751424546,8.9,9.1,8.8
168,portosense,2011,Apartamento,6037/AL,41.14096098253115,-8.613047698784094,9.5,9.9,9.1
178,down bonjardim apartments,2016,Apartamento,37069/AL,41.15037675512365,-8.609289171400631,8.8,9.5,8.8
182,cardosas stylish apartment,2015,Apartamento,21986/AL,41.14570433177258,-8.611080004371368,9.0,9.8,8.8
184,vivacity porto,2012,Estabelecimento de hospedagem,6202/AL,41.14762701209013,-8.615069260838933,-1.0,9.5,8.3
185,pensão duas nações,2010,Estabelecimento de hospedagem,6207/AL,41.147835703019766,-8.615040412650593,7.5,9.2,7.5
187,pensão frança,2010,Estabelecimento de hospedagem,5641/AL,41.147467462975825,-8.615758413613964,7.3,9.1,7.3
206,vitoria flat,2015,Apartamento,11940/AL,41.14989077404731,-8.61542351752311,9.4,9.8,9.2
214,porto downtown´s place,2016,Apartamento,37065/AL,41.14210155167096,-8.616017652564283,9.4,9.9,9.3
215,ribeira vintage flat,2016,Apartamento,23297/AL,41.142254600617875,-8.615823538363738,,,
216,casa do cristelo,2016,Apartamento,25209/AL,41.145783772869045,-8.629270073456189,9.5,9.1,9.5
219,charming house marquês,2015,Estabelecimento de hospedagem,6641/AL,41.16150543258507,-8.602619728582004,-1.0,8.2,8.4
230,tattva design hostel,2012,Estabelecimento de hospedagem-Hostel,6304/AL,41.14413288612213,-8.609044740238062,8.6,9.2,8.6
236,alegria apartment,2015,Apartamento,4649/AL,41.1518176728031,-8.60394052579397,9.5,9.6,9.1
237,nuno eça de queiroz cabral,2014,Moradia,11305/AL,41.159799527896965,-8.601116826386114,8.5,8.1,8.7
239,maria`s apartment,2015,Apartamento,22415/AL,41.15966086928322,-8.590901019639729,9.8,9.4,9.9
241,hospedaria do bonfim,2013,Estabelecimento de hospedagem,5644/AL,41.15002389685078,-8.595374743326188,6.6,7.4,6.7
246,in porto gallery guesthouse,2015,Estabelecimento de hospedagem,10140/AL,41.14937833703555,-8.609331556915246,-1.0,9.6,9.1
248,porto suite,2014,Moradia,6391/AL,41.160012364108496,-8.605755985207471,-1.0,9.1,9.3
253,fernando jorge pereira,2013,Apartamento,6795/AL,41.14225888713485,-8.614774844238296,8.5,9.6,8.2
254,shining view,2011,Apartamento,5929/AL,41.142616408556634,-8.617367129897282,9.6,9.7,9.3
257,mystay porto,2012,Moradia,6891/AL,41.143591379200885,-8.617559941449263,8.7,9.3,8.6
259,"ana maria ribeiro, lda.",2013,Estabelecimento de hospedagem,7353/AL,41.14668698969874,-8.613344309583177,-1.0,9.3,8.4
260,grande hotel paris,2014,Apartamento,12284/AL,41.147035717449675,-8.613386802112439,8.1,8.9,8.1
261,"pedonado, unipessoal, lda",2014,Moradia,5545/AL,41.14840807568074,-8.602792858219962,9.2,9.2,9.1
263,joana alexandra dos santos coelho,2015,Moradia,8962/AL,41.150040415389775,-8.603257931051926,-1.0,8.8,8.7
264,trendy apartment in downtown porto,2015,Apartamento,18016/AL,41.15015088188882,-8.603279995009608,8.9,8.8,8.1
266,design apartment porto down town,2016,Apartamento,34771/AL,41.14609611918391,-8.597971005400751,9.3,9.1,9.2
275,residencial estrela da noite,2011,Estabelecimento de hospedagem,6044/AL,41.146835984923435,-8.59612677761114,7.3,7.8,7.5
276,andarilho,2009,Estabelecimento de hospedagem-Hostel,4541/AL,41.15085205746136,-8.604691635172056,9.5,9.4,9.4
277,charming,2015,Apartamento,20239/AL,41.14277743358412,-8.600011530590201,7.2,8.0,7.5
279,pensão residencial veneza,2015,Estabelecimento de hospedagem,20565/AL,41.14715994801008,-8.589776375612523,8.0,8.2,8.0
285,my ribeira guest house,2015,Estabelecimento de hospedagem,15414/AL,41.1416050345715,-8.613200791369596,8.9,9.1,8.2
293,residencial portuguesa,2011,Estabelecimento de hospedagem,6335/AL,41.15086201688956,-8.614353958175977,7.0,8.2,7.1
294,vitória clérigos house,2015,Moradia,21974/AL,41.14456738374485,-8.614801919184154,9.5,9.2,9.3
299,five seven nine apartments,2016,Apartamento,34423/AL,41.15794284389453,-8.630546023488177,9.2,8.6,9.0
306,magalhães apartment,2016,Apartamento,27949/AL,41.15056729436666,-8.598474616412732,8.7,8.6,8.6
307,monte carlo love porto guest house,2016,Estabelecimento de hospedagem,28408/AL,41.150750289916296,-8.597662439982486,7.9,7.9,7.9
312,porto belo d´ouro,2016,Apartamento,34350/AL,41.147705924325784,-8.631982187411717,9.5,8.8,8.8
314,dukes corner-guest house,2016,Moradia,27515/AL,41.14479128486316,-8.597985765141592,-1.0,8.7,8.6
320,oportobatalha,2016,Apartamento,37726/AL,41.144832099821365,-8.606456178007003,9.2,9.7,9.0
329,ana d'ouro apartment,2015,Apartamento,22573/AL,41.15594777818929,-8.604447377175763,9.0,8.5,9.0
330,apaq,2015,Apartamento,19868/AL,41.164626416031815,-8.610819915511385,8.6,6.9,8.1
333,cp 71,2010,Moradia,5106/AL,41.141667655860424,-8.616887734021397,8.7,9.5,8.2
334,cardosas apartement,2016,Apartamento,24515/AL,41.14547557998025,-8.611917273529576,9.9,10.0,9.7
336,10 emsãodomingos,2016,Moradia,27459/AL,41.142683519100565,-8.614380579790064,-1.0,9.5,8.2
338,discovery | porto-flores,2016,Apartamento,36102/AL,41.143461979047466,-8.6147477555808,9.2,9.8,9.1
342,alma guest house,2016,Apartamento,26227/AL,41.146618905921294,-8.616663708542278,7.9,9.5,8.0
343,rivoli cinema hostel,2014,Estabelecimento de hospedagem-Hostel,6524/AL,41.14753037490612,-8.609796995024718,9.1,9.7,9.0
344,oporto loft,2015,Moradia,2947/AL,41.1481591502653,-8.623558721234042,-1.0,9.1,9.0
347,josé faustino ferreira rodrigues,2014,Estabelecimento de hospedagem,9121/AL,41.15898321758461,-8.608650958391916,-1.0,7.7,7.2
348,charm apartments porto,2015,Moradia,19617/AL,41.14346719659168,-8.614169626222079,8.8,9.6,8.4
350,porto república hostel & suites,2016,Estabelecimento de hospedagem-Hostel,23441/AL,41.15348211260044,-8.613026239799233,-1.0,8.7,8.5
352,casa s. salvador,2016,Apartamento,34019/AL,41.142062608840945,-8.614193116681578,8.4,9.7,8.5
353,bolhão central loft,2016,Apartamento,31237/AL,41.14919694507504,-8.606570623341513,9.4,9.8,8.8
362,"surfivor - porto surf hostel, lda",2014,Estabelecimento de hospedagem-Hostel,17191/AL,41.15899487872761,-8.6831959199535,8.3,9.0,8.2
364,ap - almeida e cruz,2016,Apartamento,25840/AL,41.177618549831536,-8.5832667411691,9.5,7.9,9.6
366,casa trindade,2016,Apartamento,30612/AL,41.15453787827766,-8.609683473154274,9.6,9.3,9.7
367,aparthotel oporto,2016,Apartamento,36039/AL,41.14831541718923,-8.60309081457103,9.1,9.1,8.9
368,studio77,2016,Apartamento,36055/AL,41.14854394854404,-8.603212900426179,9.6,9.6,9.6
375,apartamento monsanto,2015,Apartamento,10753/AL,41.17143374637182,-8.618964280125894,9.5,8.6,9.7
378,kika's home oporto flat,2015,Apartamento,7832/AL,41.16692406146202,-8.6002054647854,9.1,8.5,9.3
384,koolhouse porto,2014,Estabelecimento de hospedagem,519/AL,41.158588285857505,-8.634451614745057,9.0,8.7,9.0
387,ocean view oporto foz,2015,Apartamento,15618/AL,41.15691224848417,-8.681441829595261,9.9,9.7,9.7
388,loulé estudios,2013,Estabelecimento de hospedagem,5061/AL,41.14485753267482,-8.60478266841029,8.9,9.1,9.0
389,"madureia e rocha, lda",2015,Estabelecimento de hospedagem,11559/AL,41.14434125484011,-8.604561986109251,6.7,8.1,6.8
393,flat porto center cedofeita,2016,Apartamento,32273/AL,41.15408745239328,-8.618518145466135,8.6,8.8,8.6
395,portopia place,2016,Apartamento,32312/AL,41.15086507825684,-8.627441869975243,8.4,8.6,8.6
396,uportohouse,2015,Moradia,20544/AL,41.181482314499725,-8.612461799070777,8.4,7.2,8.5
400,residencial vale formoso,2010,Estabelecimento de hospedagem,6230/AL,41.165895514718095,-8.61217329546726,7.9,7.6,7.9
401,"live, love & feel porto",2014,Apartamento,5948/AL,41.16343264607464,-8.608534988468067,9.7,8.9,9.8
406,"ribeiro, ribeiro & ferreira, l.da",2012,Estabelecimento de hospedagem,6261/AL,41.175772729929534,-8.607952566544274,7.1,8.0,7.2
409,casa lindo vale,2015,Moradia,15989/AL,41.16499323394216,-8.600602547761266,-1.0,8.2,9.1
414,casa do mercado da foz,2016,Apartamento,35729/AL,41.15396040623179,-8.674485368492439,-1.0,9.2,9.1
417,quiet studio porto down town,2016,Apartamento,24338/AL,41.152778240183096,-8.603555529020843,,,
419,home in porto,2016,Apartamento,35668/AL,41.1505528793204,-8.612243881908496,8.9,9.7,8.3
420,cozy loft in downtown,2016,Apartamento,32481/AL,41.15133771874228,-8.612201393446117,9.4,9.8,9.4
422,3 houses,2013,Estabelecimento de hospedagem,7019/AL,41.15397436818913,-8.626075432249763,9.1,8.5,9.0
425,apartamento vista douro e mar,2015,Apartamento,20655/AL,41.148366880942625,-8.657430076741012,9.7,9.2,9.5
427,pedro assis de gouvea reis canedo,2015,Apartamento,16855/AL,41.15139742824073,-8.628674474782276,7.4,8.2,7.0
432,"casais imobiliaria, sa",2012,Apartamento,6297/AL,41.15034220254917,-8.676305560342232,9.5,9.7,8.8
435,pilot hostel,2012,Estabelecimento de hospedagem-Hostel,6312/AL,41.15012781500974,-8.614927735509792,8.8,9.3,8.8
438,casa da foz,2015,Apartamento,20333/AL,41.14838293249861,-8.66726061041803,9.2,8.9,9.3
446,flores apart,2015,Apartamento,13293/AL,41.14428370891407,-8.613244035276532,9.0,9.7,8.7
448,porto alive hostel,2013,Moradia,6859/AL,41.14406343380077,-8.613141599134748,7.5,9.2,7.1
450,b the guest,2014,Moradia,6500/AL,41.14849460680558,-8.607470736419446,-1.0,9.6,8.9
451,stayin oporto apartments,2015,Estabelecimento de hospedagem,21224/AL,41.14909494350122,-8.608542332346557,7.6,9.2,7.8
457,alegria rooms,2016,Estabelecimento de hospedagem,31660/AL,41.146709434970234,-8.603717455211846,8.2,8.8,8.2
459,delicias do porto,2016,Apartamento,24392/AL,41.1510712783306,-8.604192956775693,8.9,9.1,8.8
461,"allegra, 508",2016,Moradia,27752/AL,41.15432456470437,-8.602944383439887,-1.0,8.1,8.5
464,happy apartment porto,2016,Apartamento,23906/AL,41.15819421793357,-8.601391647099154,8.1,8.0,8.4
465,ferreira,2016,Apartamento,31347/AL,41.158899337112786,-8.601519601736683,8.9,7.4,8.8
481,oporto city hostel,2012,Estabelecimento de hospedagem,6849/AL,41.15241453612283,-8.607664840555884,8.7,8.9,8.8
482,porto spot hostel,2010,Estabelecimento de hospedagem-Hostel,5115/AL,41.153672814783164,-8.605303557553842,9.0,8.7,8.8
484,pensão cristal,2012,Estabelecimento de hospedagem,6150/AL,41.14709876352868,-8.614286009688458,7.7,8.9,7.3
494,douro a vista,2016,Apartamento,25732/AL,41.14820862882117,-8.635195618660953,9.1,8.9,8.2
495,casa paraíso,2016,Apartamento,32765/AL,41.15755006755081,-8.608751417116348,9.5,9.2,9.5
496,apartamento da lapa,2016,Apartamento,34551/AL,41.15700813863021,-8.610796153140754,9.5,8.7,9.3
502,dowm2town,2016,Moradia,26855/AL,41.145781215364835,-8.620762572332005,-1.0,9.0,8.7
504,portfólio guest house,2016,Estabelecimento de hospedagem,30771/AL,41.149158599986954,-8.620956717383836,8.2,8.6,8.0
507,deco gem aliados,2016,Apartamento,38124/AL,41.14892178609274,-8.60987265980268,9.8,9.9,9.7
512,prédio sá da bandeira,2016,Moradia,23576/AL,41.14710673218197,-8.609029371672557,-1.0,9.3,7.9
513,bouganvillea oporto flat,2016,Apartamento,30910/AL,41.149675818837025,-8.607629881655347,9.2,9.8,8.7
515,nice way porto,2016,Estabelecimento de hospedagem-Hostel,29876/AL,41.14668279973992,-8.610445987146067,-1.0,9.6,8.6
517,bateira & ferreira lda,2016,Apartamento,24057/AL,41.150208715091935,-8.605820824320324,8.9,9.3,8.8
518,apartamento de josé marques,2016,Apartamento,37560/AL,41.149601568381144,-8.58967061817666,8.9,8.7,9.2
530,oporto city flats - casa da picaria,2016,Moradia,35861/AL,41.149634724073,-8.612817605639492,-1.0,9.4,9.2
531,lb twin apartment porto,2016,Apartamento,38244/AL,41.149682990136895,-8.61280323976337,7.2,8.8,6.6
535,oporto coliseum residence,2016,Apartamento,37995/AL,41.14647129797861,-8.604983313108331,9.6,9.7,9.2
541,porto persona,2016,Estabelecimento de hospedagem,28805/AL,41.1595591569635,-8.63313559513148,-1.0,8.9,9.6
547,porto misterio - river side,2014,Apartamento,6201/AL,41.141049585089846,-8.614085515016775,8.8,9.4,8.4
548,1872 river house,2014,Estabelecimento de hospedagem,17264/AL,41.14028551677692,-8.615848049711506,-1.0,10.0,9.1
549,j. f. flat porto downtown,2015,Apartamento,10994/AL,41.14887319259686,-8.614446711037367,,,
553,mimhostel,2009,Moradia,4554/AL,41.15531809894181,-8.608862307740072,8.2,8.4,8.0
555,almada domus,2016,Estabelecimento de hospedagem,37584/AL,41.15163444121014,-8.612228923261517,9.2,9.1,8.7
563,casa antero de quental,2016,Moradia,24721/AL,41.162196757939334,-8.611385390589929,7.9,7.4,8.3
565,goabio apartment studio,2016,Apartamento,31498/AL,41.14170524613976,-8.6183545049438,9.2,9.6,8.9
566,goabio apartment riverview,2016,Apartamento,31499/AL,41.14188016533795,-8.61856883544556,9.2,9.4,9.0
574,"pinto miranda & miranda, lda",2011,Apartamento,7316/AL,41.15895275839753,-8.633983001742912,6.9,7.5,6.6
577,magnolia porto hostel,2010,Estabelecimento de hospedagem-Hostel,5832/AL,41.145279723193454,-8.603617066825317,7.8,8.5,7.7
582,o santo da lapa,2016,Moradia,31616/AL,41.15894443493549,-8.613953076587471,8.4,7.9,8.3
584,duplex da lapa,2016,Moradia,35185/AL,41.1581683001848,-8.613473946010938,8.9,8.2,9.1
585,cozy 4 you city center,2016,Apartamento,36040/AL,41.14915507476778,-8.603535665073085,7.8,7.9,7.5
587,oporto old in new,2016,Apartamento,37992/AL,41.150621757858225,-8.609010156549317,10.0,9.9,10.0
606,sunrise house,2016,Moradia,34243/AL,41.14740155108647,-8.600614396131506,9.7,10.0,10.0
614,foz do douro beach apartment,2016,Apartamento,33594/AL,41.150147378882814,-8.67574209282637,8.3,9.1,7.2
622,home mcm,2016,Apartamento,37099/AL,41.15140096374676,-8.590309488595915,9.2,8.6,9.3
626,cardosas boutique apartement,2016,Apartamento,28357/AL,41.145180120647375,-8.611787568050907,9.4,9.8,9.0
633,t1 no porto,2016,Apartamento,34042/AL,41.14532661060071,-8.614978018934481,9.3,9.5,9.2
638,vale formoso apartment,2016,Apartamento,36392/AL,41.16805977981332,-8.61204212425489,8.9,8.0,9.1
642,casa das almas,2016,Moradia,24133/AL,41.15066123336701,-8.60501982303628,8.4,9.2,8.8
646,porto trv.cedofeita´s place,2016,Apartamento,37068/AL,41.14964064415463,-8.61577674466165,9.4,9.4,9.2
649,porto de rio,2016,Estabelecimento de hospedagem,29335/AL,41.14093669879748,-8.61705978011982,9.6,9.7,9.1
651,charming antas house,2016,Moradia,24511/AL,41.16408244729806,-8.59053357909872,-1.0,9.3,9.6
653,o'porto 581,2016,Apartamento,26673/AL,41.1609661364052,-8.622887570814822,8.8,8.3,8.8
660,oporto trindade,2016,Apartamento,28514/AL,41.15528834222102,-8.608295217871177,9.3,9.3,9.0
661,lapa apartment,2016,Apartamento,34089/AL,41.15504335762767,-8.610851331038619,8.2,7.2,7.5
663,d&s - s. bento apartments ii,2016,Apartamento,33126/AL,41.144680575983514,-8.609385002243167,8.7,9.5,8.3
669,it´s a love story,2016,Apartamento,25225/AL,41.15014242452079,-8.617711024960279,,,
670,bombarda 109,2016,Apartamento,32814/AL,41.14988051990158,-8.6181755075534,9.5,9.4,9.5
675,lad porto,2016,Apartamento,36115/AL,41.162882033774714,-8.616271126456844,,,
678,t3-habitação,2016,Apartamento,33419/AL,41.156988649614355,-8.617768964693264,7.2,7.9,7.1
695,go2oporto @ ribeira do porto 1,2016,Apartamento,31834/AL,41.1401002298506,-8.61523225274533,9.0,9.9,8.7
696,go2oporto @ ribeira do porto 2,2016,Apartamento,31839/AL,41.1400578558727,-8.61522557723345,9.0,9.9,8.7
697,go2oporto @ ribeira do porto 3,2016,Apartamento,31843/AL,41.14005261691286,-8.61524772342263,9.0,9.9,8.7
698,go2oporto @ ribeira do porto 0,2016,Apartamento,31832/AL,41.14009598191443,-8.615253409317933,9.0,9.9,8.7
699,go2oporto @ linhagem i,2016,Apartamento,31825/AL,41.14013854396474,-8.61584926132593,8.9,9.7,8.5
700,go2oporto @ linhagem ii,2016,Apartamento,31827/AL,41.140144322157866,-8.615869350672181,8.9,9.7,8.5
714,studio porto riverside,2014,Apartamento,6758/AL,41.14179218233863,-8.616714616503653,9.4,9.6,9.1
715,spot apartments ribeira i,2016,Apartamento,34685/AL,41.14180543257178,-8.61670425050671,9.1,9.5,9.3
716,chateau belomonte,2016,Apartamento,33693/AL,41.14264682678098,-8.615694778519806,9.2,9.6,9.0
717,chateau belomonte,2016,Apartamento,33572/AL,41.14262771507211,-8.615712590188172,9.2,9.6,9.0
718,chateau belomonte,2016,Apartamento,33576/AL,41.14265229596332,-8.615731402500717,9.2,9.6,9.0
735,janika's apartment,2016,Apartamento,34090/AL,41.14238426551818,-8.613841757911688,9.9,9.9,9.6
736,oporto golden view apartment,2016,Apartamento,33337/AL,41.142396518659545,-8.61380560605997,9.8,9.9,9.3
741,feelporto ribeira vintage duplex,2016,Apartamento,26386/AL,41.142423911490376,-8.613782588763291,9.2,9.8,8.5
744,lm ribeira,2016,Apartamento,28511/AL,41.14238107521618,-8.61482308379316,9.4,9.8,9.3
745,porto downtown flats,2016,Apartamento,37729/AL,41.14236752295007,-8.615012915188515,9.6,9.8,9.4
746,ribeira oporto apartment,2016,Apartamento,35745/AL,41.14238581095076,-8.61507910350953,8.4,9.5,8.5
751,flat msc i comércio do porto,2016,Apartamento,36358/AL,41.14223862096761,-8.616259224384127,9.7,9.8,9.4
756,apartamento s. joão-4d,2016,Apartamento,29591/AL,41.1422918801825,-8.613638914496157,9.5,9.9,9.2
759,apartamento porto center,2016,Apartamento,34367/AL,41.142139771442636,-8.616428565697193,8.6,9.3,8.6
772,vitor manuel costa coelho,2013,Apartamento,6844/AL,41.140802725574524,-8.614945855232131,9.3,10.0,8.9
779,coimbra dos santos & rocha,2012,Apartamento,7437/AL,41.14016927620021,-8.614966828125196,9.2,9.6,8.7
793,taipas apartments,2012,Apartamento,6277/AL,41.14385394197535,-8.617333694898534,9.0,9.5,8.8
795,taipas apartments,2012,Apartamento,6275/AL,41.14385837785574,-8.61736391329397,9.0,9.5,8.8
796,taipas apartments,2016,Apartamento,25367/AL,41.1438644188741,-8.617351093718069,9.0,9.5,8.8
797,taipas apartments,2016,Apartamento,25365/AL,41.14383791354641,-8.617331758819695,9.0,9.5,8.8
801,inside porto apartments,2015,Apartamento,22534/AL,41.14388152102272,-8.614024724192557,9.4,9.8,8.7
802,inside porto apartments,2015,Apartamento,22531/AL,41.14382979419965,-8.613986042652668,9.4,9.8,8.7
807,cordoaria garden cozy apartment,2015,Apartamento,14757/AL,41.14413614623928,-8.617014111310842,7.5,9.2,7.3
808,old town cozy apartment,2016,Apartamento,30685/AL,41.144091452362396,-8.617026358523406,7.7,8.3,7.8
812,virtudes apartment 1,2016,Apartamento,35599/AL,41.14329864022559,-8.617825578550713,,,
813,virtudes apartment 2,2016,Apartamento,35603/AL,41.14330787249002,-8.61784493701885,,,
818,edf. lsd,2015,Apartamento,20121/AL,41.142916604961776,-8.615399461744346,8.5,9.7,8.2
822,marco perini,2013,Apartamento,4910/AL,41.14306963827605,-8.61679309673822,9.4,9.3,9.3
823,marco perini,2014,Apartamento,4916/AL,41.14303688540917,-8.616781093965507,9.4,9.3,9.3
824,vitória apartments,2014,Apartamento,4925/AL,41.143069429563226,-8.6167550152145,9.4,9.3,9.3
826,alfandega apartments,2013,Apartamento,7091/AL,41.14413358825013,-8.622519017765171,9.3,9.1,9.0
841,belos aires apartaments,2016,Apartamento,29046/AL,41.14259366617489,-8.617279046224994,9.3,9.7,9.1
842,belos aires apartments,2016,Apartamento,29052/AL,41.14260430569485,-8.617303149459545,9.3,9.7,9.1
843,belos aires apartments,2016,Apartamento,29057/AL,41.14261902072353,-8.617280461542329,9.3,9.7,9.1
844,belos aires apartments,2016,Apartamento,29062/AL,41.142602271295914,-8.617258399997251,9.3,9.7,9.1
845,belos aires apartments,2016,Apartamento,28797/AL,41.14262180007725,-8.6173080609897,9.3,9.7,9.1
850,oporto invite tomaz gonzague,2016,Apartamento,34895/AL,41.142258237265835,-8.618208075498307,9.2,9.4,9.1
851,oporto invite tomaz gonzague 2,2016,Apartamento,34896/AL,41.14224866165424,-8.61817942296454,9.2,9.4,9.1
853,spot apartments ribeira ii,2016,Apartamento,34669/AL,41.14204826615413,-8.618940609466312,9.1,9.3,8.9
854,"benardi - sociedade imobiliária, s.a.",2014,Apartamento,6313/AL,41.14407412102795,-8.611592791893662,9.2,9.4,8.9
855,"benardi - sociedade imobiliária, s.a.",2010,,6315/AL,41.14408165781743,-8.611516054484598,9.2,9.4,8.9
856,"benardi - sociedade imobiliária, s.a.",2014,Apartamento,6289/AL,41.144087037786846,-8.611605718295893,9.2,9.4,8.9
858,"benardi - sociedade imobiliária, s.a.",2010,,6305/AL,41.144094064302244,-8.611558729309987,9.2,9.4,8.9
859,urban apartment casa da portela,2013,Apartamento,5105/AL,41.14408220406363,-8.61154874915749,9.9,9.9,9.7
860,"benardi - sociedade imobiliária, s.a.",2014,Apartamento,6306/AL,41.14409504306206,-8.611498459084862,9.2,9.4,8.9
879,mouzinho 160 by oporto tourist apartments,2016,Apartamento,24763/AL,41.1431170934864,-8.61342570997378,9.2,9.7,8.7
880,mouzinho 160 by oporto tourist apartments,2016,Apartamento,24760/AL,41.143105187456385,-8.613400889175876,9.2,9.7,8.7
881,mouzinho 160 by oporto tourist apartments,2016,Apartamento,24774/AL,41.143126142847194,-8.613446994856782,9.2,9.7,8.7
882,mouzinho 160 by oporto tourist apartments,2016,Apartamento,24770/AL,41.14306249048875,-8.613339468448268,9.2,9.7,8.7
883,mouzinho 160 by oporto tourist apartments,2016,Apartamento,24767/AL,41.14314374468083,-8.613416370396843,9.2,9.7,8.7
884,mouzinho 160 by oporto tourist apartments,2016,Apartamento,24776/AL,41.143123301130274,-8.613397066218873,9.2,9.7,8.7
885,mouzinho 160 by oporto tourist apartments,2016,Apartamento,24777/AL,41.143098961261146,-8.613371131140417,9.2,9.7,8.7
886,mouzinho 160 by oporto tourist apartments,2016,Apartamento,29079/AL,41.143059812064436,-8.61330968521408,9.2,9.7,8.7
887,mouzinho 160 by oporto tourist apartments,2016,Apartamento,24778/AL,41.14306697787197,-8.613359995674392,9.2,9.7,8.7
888,mouzinho 160 by oporto tourist apartments,2016,Apartamento,29081/AL,41.14307560302823,-8.613322125394689,9.2,9.7,8.7
889,mouzinho 160 by oporto tourist apartments,2016,Apartamento,24779/AL,41.14308250409908,-8.613359740200103,9.2,9.7,8.7
890,mouzinho 160 by oporto tourist apartments,2016,Apartamento,29107/AL,41.14308142645376,-8.613381651228405,9.2,9.7,8.7
891,mouzinho 160 by oporto tourist apartments,2016,Apartamento,29114/AL,41.143088571264904,-8.613344653904623,9.2,9.7,8.7
893,1.fd,2016,Apartamento,24668/AL,41.14306796154447,-8.614082666185636,9.0,9.6,8.9
931,domus porto perfeito,2015,Apartamento,8756/AL,41.142929279107705,-8.609792026157333,9.4,9.9,9.2
936,casa da catedral,2015,Apartamento,20402/AL,41.14336280312682,-8.60966755927529,9.8,10.0,9.6
937,luis i,2015,Apartamento,3658/AL,41.14334031906412,-8.609628825018623,9.4,9.8,8.9
939,feelporto historic hollywood flat,2016,Apartamento,26404/AL,41.14338064747224,-8.609813998117275,9.0,9.6,8.4
940,feelporto cozy flat,2016,Apartamento,26403/AL,41.14342762262881,-8.609877109619177,9.0,9.6,8.4
941,feelporto historic chic & music,2016,Apartamento,26393/AL,41.14333498796241,-8.60988309642162,9.0,9.6,8.4
942,feelporto historic boutique flat,2016,Apartamento,26389/AL,41.14335812086508,-8.609817184875231,9.0,9.6,8.4
943,tattva design apartments,2016,Apartamento,27436/AL,41.14332765550991,-8.606838770583687,8.8,9.2,8.5
944,tattva design apartments,2016,Apartamento,27437/AL,41.14333223030256,-8.606873315080167,8.8,9.2,8.5
945,tattva design apartments,2016,Apartamento,27440/AL,41.14336043554222,-8.606882851423352,8.8,9.2,8.5
946,tattva design apartments,2016,Apartamento,27442/AL,41.14333798049788,-8.606908427905688,8.8,9.2,8.5
947,tattva design apartments,2016,Apartamento,37602/AL,41.143360303802616,-8.60684058605255,8.8,9.2,8.5
964,fontainhas 99 studio,2015,Apartamento,13316/AL,41.143902640511406,-8.602691256804805,7.5,8.0,7.5
992,j f family apartment downtown,2015,Apartamento,18151/AL,41.148587679820956,-8.614211552063896,,,
998,galerias paris porto downtown apartments,2013,Apartamento,6882/AL,41.14787356321039,-8.61411057356128,9.3,9.7,9.0
999,galerias paris porto downtown apartments,2013,Apartamento,6906/AL,41.147863740190424,-8.614078844127897,9.3,9.7,9.0
1001,porto clérigo´s place,2016,Apartamento,37059/AL,41.14788190794996,-8.614070274421014,9.6,9.9,9.2
1017,antónio maria pena de castro,2014,Apartamento,16970/AL,41.14749646563509,-8.612837147622418,9.8,10.0,9.7
1021,clérigos ville porto rooms,2015,Apartamento,9862/AL,41.14614884738615,-8.613498121300184,9.1,9.5,8.9
1026,clerigos view,2015,Apartamento,8362/AL,41.146118346756296,-8.612547717434568,8.6,9.5,8.4
1030,"mh trismo, unipessoal, l.da",2014,Apartamento,17013/AL,41.14619225335971,-8.612420586582568,9.1,9.8,9.1
1031,"mh turismo - unipessoal, lda",2014,Apartamento,6156/AL,41.14619268699243,-8.612541835619368,9.1,9.8,9.1
1032,"mh turismo - unipessoal, lda",2014,Apartamento,6349/AL,41.14623846220253,-8.61253292311888,9.1,9.8,9.1
1033,"mh turismo - unipessoal, lda",2014,Apartamento,6553/AL,41.14620166820176,-8.612480739316377,9.1,9.8,9.1
1034,"mh turismo - unipessoal, lda",2014,Apartamento,6166/AL,41.14621987580726,-8.612269821554184,9.1,9.8,9.1
1035,"mh turismo - unipessoal, lda",2014,Apartamento,6158/AL,41.14621741507268,-8.612445108491025,9.1,9.8,9.1
1036,"mh turismo - unipessoal, lda",2014,Apartamento,6159/AL,41.146206172528466,-8.612317631607722,9.1,9.8,9.1
1037,"mh turismo - unipessoal, lda",2014,Apartamento,6161/AL,41.14621997669506,-8.612253419839973,9.1,9.8,9.1
1038,"mh turismo - unipessoal, lda",2014,Apartamento,6134/AL,41.14622236289745,-8.61232177009921,9.1,9.8,9.1
1039,"mh turismo - unipessoal, lda",2014,Apartamento,6142/AL,41.146214159425824,-8.612503464079595,9.1,9.8,9.1
1040,"mh turismo, unipessoal l.da",2014,Apartamento,16969/AL,41.1461975464037,-8.612526789702228,9.1,9.8,9.1
1041,"mh turismo, unipessoal, l.da",2014,Apartamento,17074/AL,41.14620875519564,-8.612265379434547,9.1,9.8,9.1
1047,casas do porto - ribeira apartments,2013,Apartamento,6675/AL,41.14742462610974,-8.613322900002128,9.8,9.9,9.4
1053,chateau apartments,2015,Apartamento,11092/AL,41.14697304488505,-8.61236585613281,8.9,9.6,8.7
1054,chateau apartments,2015,Apartamento,11093/AL,41.14698794046447,-8.612363303858709,8.9,9.6,8.7
1055,chateau apartments,2015,Apartamento,11094/AL,41.14698020996871,-8.612388831681244,8.9,9.6,8.7
1056,chateau apartments,2015,Apartamento,11095/AL,41.14697493605598,-8.612328914579873,8.9,9.6,8.7
1057,chateau apartments,2015,Apartamento,11096/AL,41.14698749235831,-8.612316435723757,8.9,9.6,8.7
1070,dm2,2015,Apartamento,21355/AL,41.147748665171314,-8.622069408464075,8.5,9.1,8.2
1080,"mh turismo - unipessoal, lda",2014,Apartamento,5987/AL,41.14686786238871,-8.62060567700018,8.6,8.9,8.7
1082,"mh turismo - unipessoal, lda",2014,Apartamento,6042/AL,41.14685296666756,-8.620564125008636,8.6,8.9,8.7
1083,"mh turismo - unipessoal, lda",2014,Apartamento,6047/AL,41.146845975786285,-8.62060228505328,8.6,8.9,8.7
1084,"mh turismo - unipessoal, lda",2014,Apartamento,6049/AL,41.14685260305359,-8.620635321764633,8.6,8.9,8.7
1085,"mh turismo - unipessoal, lda",2014,Apartamento,6054/AL,41.146879341172756,-8.620523370445701,8.6,8.9,8.7
1086,"mh turismo - unipessoal, lda",2014,Apartamento,6055/AL,41.1468718990025,-8.620569844006555,8.6,8.9,8.7
1089,carregal apartment,2016,Apartamento,33574/AL,41.14868469616532,-8.618566459403114,,,
1090,augustos centenary apartments,2016,Apartamento,23716/AL,41.14349580054478,-8.609415018060059,8.8,9.5,8.6
1091,augustos centenary apartments,2016,Apartamento,23714/AL,41.143492569949366,-8.609438208310072,8.8,9.5,8.6
1092,augustos centenary apartments,2016,Apartamento,23714/AL,41.143509586514156,-8.60943640000273,8.8,9.5,8.6
1095,ribeira cinema apartments,2013,Apartamento,6837/AL,41.1411093560436,-8.60909879519715,8.9,9.4,8.7
1099,oporto fr cativo flat,2015,Apartamento,10484/AL,41.14423733644976,-8.608290662463062,9.5,9.8,9.0
1100,d&s - porto theater apartment,2015,Apartamento,18939/AL,41.144215370908505,-8.608306236841816,8.5,9.3,8.2
1101,home4you,2016,Apartamento,32923/AL,41.14423913675317,-8.608328865623035,9.5,9.7,9.3
1105,cativo i,2016,Apartamento,28835/AL,41.14411135380383,-8.609161250331127,8.9,10.0,8.1
1108,cativo design apartment,2016,Apartamento,30466/AL,41.144052011041495,-8.60916758126208,8.5,9.4,7.9
1109,cativo 3f apartments,2016,Apartamento,27058/AL,41.14413651486255,-8.609125313261362,9.3,9.8,9.0
1111,porto cativo mezzanine,2016,Apartamento,37004/AL,41.14413916315241,-8.609085753593329,8.5,9.6,8.4
1112,porto cativo,2016,Apartamento,31186/AL,41.14409836140713,-8.60910438547692,10.0,10.0,10.0
1114,caldeireiros apartment,2016,Apartamento,28821/AL,41.14479265808265,-8.612362335011767,9.0,9.9,8.9
1143,flat 59,2015,Apartamento,6472/AL,41.14508340725073,-8.61261907761822,6.9,8.3,6.7
1159,oporto chic & cozy,2016,Apartamento,26959/AL,41.14544718308799,-8.614681037477347,9.1,9.6,8.9
1165,casa do tio - virtudes,2015,Apartamento,21384/AL,41.14446420191364,-8.617990991677718,8.8,9.4,8.5
1178,oportoinn loios,2015,Apartamento,14553/AL,41.14564400941955,-8.61206845248231,8.0,9.0,8.0
1182,lóios 2.2,2015,Moradia,7428/AL,41.14564421795992,-8.612117301198941,9.4,9.8,9.2
1184,cardosas living lóios,2015,Apartamento,19424/AL,41.14550749605215,-8.611957945194881,9.0,9.7,8.7
1185,porto lux view,2015,Apartamento,19427/AL,41.14553517847595,-8.611947428025882,9.0,9.7,8.7
1188,lóios ao cubo,2015,Apartamento,19429/AL,41.145540960093854,-8.611921530325086,9.0,9.7,8.7
1199,cardosas cosy apartment,2015,Apartamento,14991/AL,41.14538820751759,-8.611243511208366,9.2,9.6,8.7
1200,esquina do mundo,2016,Apartamento,25741/AL,41.14539948809135,-8.611237231459858,9.1,9.6,8.5
1210,porto with history,2015,Apartamento,10957/AL,41.145050941753105,-8.61174424181103,9.8,10.0,9.5
1211,cardosas charming apartment,2015,Apartamento,8523/AL,41.14506879841404,-8.611769641209465,9.7,9.8,9.5
1212,ricardo guimarães,2015,Apartamento,16830/AL,41.14504263092186,-8.61176235695286,9.7,9.9,9.5
1213,toctoc yellow,2016,Apartamento,30099/AL,41.145008864602204,-8.611722716809533,,,
1214,são bento luxury building,2016,Apartamento,37164/AL,41.14487383982351,-8.611492406906482,8.9,9.6,8.6
1215,são bento luxury building,2016,Apartamento,37166/AL,41.14488480029963,-8.611518210891376,8.9,9.6,8.6
1216,são bento luxury building,2016,Apartamento,37159/AL,41.14486705311908,-8.611517946856077,8.9,9.6,8.6
1223,0,2016,Apartamento,28719/AL,41.14471822417895,-8.611264993568236,9.0,9.7,8.5
1224,house city,2016,Apartamento,34257/AL,41.14471157750763,-8.611311179392912,8.8,9.5,8.6
1229,spot apartments s. bento 11,2016,Apartamento,34618/AL,41.144673537049066,-8.611360917983339,9.3,9.8,9.2
1230,mouzinho`s place,2016,Apartamento,34534/AL,41.14463118935947,-8.611329300892638,9.5,9.8,9.3
1234,opo trinta e um,2016,Apartamento,32297/AL,41.14463948940136,-8.6113660606233,9.2,9.7,8.9
1243,crocodile house s. bento apartments i,2016,Apartamento,28646/AL,41.14461398718502,-8.609555250248825,8.6,9.3,8.4
1249,d & s - porto s. bento apartments,2015,Apartamento,19881/AL,41.14455621953121,-8.609437171950622,8.7,9.5,8.4
1251,12 short term hotel,2012,Estabelecimento de hospedagem,14950/AL,41.14433325503334,-8.605055182182237,8.8,9.0,8.9
1258,casas do rivoli,2015,Apartamento,18868/AL,41.14811285141797,-8.609581933537472,9.3,9.7,8.8
1259,casas do rivoli,2015,Apartamento,18871/AL,41.1481196472491,-8.609672966993127,9.3,9.7,8.8
1260,casas do rivoli,2015,Apartamento,18873/AL,41.14817151334867,-8.609694475896472,9.3,9.7,8.8
1261,casas do rivoli,2015,Apartamento,18872/AL,41.1481160233251,-8.609605217196014,9.3,9.7,8.8
1262,casas do rivoli,2015,Apartamento,18879/AL,41.14813975628927,-8.609591003459474,9.3,9.7,8.8
1263,casas do rivoli,2015,Apartamento,18880/AL,41.14814726193768,-8.609638801414686,9.3,9.7,8.8
1264,casas do rivoli,2015,Apartamento,18884/AL,41.14815853790988,-8.609686095567442,9.3,9.7,8.8
1265,casas do rivoli,2015,Apartamento,18830/AL,41.148114255361655,-8.60952200599177,9.3,9.7,8.8
1266,casas do rivoli,2015,Apartamento,18836/AL,41.14813025174103,-8.609660559031479,9.3,9.7,8.8
1270,hospedaria 31 de janeiro,2010,Estabelecimento de hospedagem,5854/AL,41.14629309205574,-8.607814855731803,7.5,9.0,7.5
1272,abbey apartments,2016,Apartamento,35158/AL,41.14807244722437,-8.607961417160109,9.6,9.8,9.4
1278,apartamento majestic,2015,Apartamento,9594/AL,41.148637698959874,-8.604200919474073,8.6,9.0,8.5
1280,alegria,2016,Apartamento,23228/AL,41.14862371509524,-8.604128128883541,9.0,9.3,8.7
1281,oportonow iii,2016,Apartamento,28164/AL,41.14824831272661,-8.607660056471929,9.1,9.5,9.1
1282,oportonow ii,2016,Apartamento,28161/AL,41.14828892284549,-8.607672242124181,9.1,9.5,9.1
1283,oportonow iv,2016,Apartamento,28165/AL,41.148281516737136,-8.607645911726777,9.1,9.5,9.1
1284,oportonow i,2016,Apartamento,28158/AL,41.14825681018029,-8.607690299525707,9.1,9.5,9.1
1294,porto cinema apartments,2016,Apartamento,28256/AL,41.146255886522624,-8.606967418580037,9.4,9.7,9.3
1300,santa catarina downtown apartment,2015,Apartamento,15083/AL,41.1465597638359,-8.606770605662472,7.9,9.4,7.0
1302,santa catarina's loft,2015,Apartamento,15070/AL,41.14655435133378,-8.606786766548906,8.6,9.5,7.8
1303,estudio ruvina,2015,Apartamento,17789/AL,41.14775437422781,-8.604888667718347,9.6,9.8,9.4
1306,formosa loft,2016,Apartamento,27395/AL,41.14780950023859,-8.604901550404838,9.4,10.0,9.0
1311,formosa,2016,Apartamento,32858/AL,41.147926628623736,-8.605308422853714,9.5,9.6,9.3
1313,ml oporto apartments,2016,Apartamento,26560/AL,41.14763201235719,-8.603333163642631,8.3,9.1,8.0
1329,oporto wish,2015,Apartamento,16828/AL,41.146017766924246,-8.608845153945364,9.1,9.9,8.8
1350,garden apartment 2,2016,Apartamento,37498/AL,41.14574481800238,-8.603419119913768,8.8,9.2,8.6
1354,bra.com bonfim 001,2015,Apartamento,18095/AL,41.146944037706895,-8.598018723991283,8.6,8.6,8.4
1355,bra.com bonfim 101,2015,Apartamento,18352/AL,41.146939749736475,-8.597996970010518,8.6,8.6,8.4
1356,bra.com bonfim 201,2015,Apartamento,18353/AL,41.1469594334099,-8.597986205467981,8.6,8.6,8.4
1357,bra.com bonfim 301,2015,Apartamento,18358/AL,41.14696642951511,-8.598011824980562,8.6,8.6,8.4
1371,dapraça apartments,2016,Apartamento,37565/AL,41.144664038051246,-8.598350376005522,9.7,9.2,9.6
1390,go2oporto @infante house cobertura,2016,Apartamento,32404/AL,41.14129968234071,-8.614408371356792,8.9,9.7,8.5
1403,douro apartments - s. miguel - apartamento superior 2º,2016,Apartamento,32691/AL,41.143287986188284,-8.616411341268773,9.3,9.5,8.9
1412,cathedral design apartments,2016,Apartamento,32946/AL,41.14284643095271,-8.612398995835447,9.4,9.7,9.1
1413,cathedral design apartments,2016,Apartamento,32952/AL,41.142800650606524,-8.612424427158556,9.4,9.7,9.1
1414,cathedral design apartments,2016,Apartamento,32950/AL,41.1428345632929,-8.612384556144969,9.4,9.7,9.1
1415,cathedral design apartments,2016,Apartamento,32957/AL,41.14283412707901,-8.61243015229715,9.4,9.7,9.1
1416,cathedral design apartments,2016,Apartamento,32953/AL,41.14281299978509,-8.612381126468264,9.4,9.7,9.1
1417,cathedral design apartments,2016,Apartamento,32965/AL,41.14285039037669,-8.612411012145934,9.4,9.7,9.1
1441,"passos manuel, 236 al",2016,Apartamento,36958/AL,41.14645484208126,-8.604766319062918,8.7,9.4,8.5
1447,4twoloft,2016,Apartamento,35666/AL,41.146045967565556,-8.605661522221347,,,
1450,oporto trendy heritage 1,2016,Apartamento,35547/AL,41.14667119579543,-8.602900050220656,9.3,9.7,9.0
1499,cedofeita 408,2015,Apartamento,12899/AL,41.152792665441815,-8.618102495096748,9.6,9.7,9.5
1516,le petit chateau apartements,2015,Apartamento,23050/AL,41.16275967258516,-8.610547942315117,9.7,8.9,9.7
1517,le petit chateau apartments,2015,Apartamento,23051/AL,41.162755864448556,-8.610522905598954,9.7,8.9,9.7
1518,le petit chateau apartments,2015,Apartamento,23052/AL,41.16279474947082,-8.610529978990918,9.7,8.9,9.7
1526,"mh turismo - unipessoal, lda",2014,Apartamento,5518/AL,41.14895963248656,-8.616185360095034,8.3,9.2,8.3
1527,"mh turismo - unipessoal, lda",2014,Apartamento,5516/AL,41.14893809633777,-8.616196865925703,8.3,9.2,8.3
1528,"mh turismo - unipessoal, lda",2014,Apartamento,5323/AL,41.14894043341233,-8.616178356064713,8.3,9.2,8.3
1543,douro dreams guest house,2015,Moradia,21569/AL,41.15146612159584,-8.621891707422547,-1.0,8.8,9.2
1544,porto.arte,2016,Apartamento,27178/AL,41.14914535838361,-8.623880426914425,9.8,9.7,9.8
1545,porto arte,2016,Apartamento,28683/AL,41.14915935966243,-8.623900712218948,9.7,9.4,9.6
1562,studio porto,2015,Apartamento,21097/AL,41.15277024813626,-8.61697144162341,9.3,9.5,9.2
1565,mártires da liberdade,2015,Apartamento,22603/AL,41.1517456703655,-8.613704652801047,8.8,8.8,9.0
1566,new hearthmade studio 2,2016,Apartamento,33161/AL,41.15168456365196,-8.613716990917585,,,
1567,new heartmade apartment,2016,Apartamento,26856/AL,41.15170581772017,-8.613716235351779,,,
1579,d. joão iv,2016,Apartamento,29821/AL,41.149889529492896,-8.601954086234219,9.9,9.6,9.8
1586,"dom joão iv, apartment",2015,Apartamento,19744/AL,41.14880273735629,-8.601933549932358,9.4,9.1,9.3
1587,porto memória,2016,Apartamento,30921/AL,41.14880171814868,-8.601967705508317,,,
1588,hello porto skylight,2016,Apartamento,29963/AL,41.149073558953596,-8.601772386603265,,,
1590,museum studio,2016,Apartamento,27628/AL,41.149090829281114,-8.60175072856379,,,
1594,4j's apartment,2016,Apartamento,35881/AL,41.153207003545646,-8.601596610783872,9.7,8.9,9.7
1596,porto mixcolor house,2016,Apartamento,36124/AL,41.15237352231774,-8.600058418467484,7.8,8.1,8.0
1599,"eco for all, consultoria, comunicação e sustentabilidade, lda",2014,Apartamento,6557/AL,41.1519481531429,-8.597477029611769,9.1,8.7,9.1
1605,live in porto,2015,Apartamento,15430/AL,41.165525947881875,-8.611385583430527,9.4,8.4,9.4
1606,live in porto,2015,Apartamento,14953/AL,41.16557493062122,-8.611308105499903,9.5,8.9,9.5
1611,picaria 14,2016,Apartamento,38207/AL,41.14875266182916,-8.612892404843592,9.6,9.9,9.4
1613,almada azul,2016,Apartamento,37699/AL,41.14891115992366,-8.612250779996943,9.7,9.8,9.6
1615,almada 329 apartment,2015,Apartamento,19111/AL,41.14972297620799,-8.61227322489085,9.3,9.6,9.1
1617,by almada 346,2016,Apartamento,23732/AL,41.14960252622332,-8.611961335154744,9.4,9.7,9.1
1618,by almada 346,2016,Apartamento,23710/AL,41.149591012872406,-8.611965560976753,9.4,9.7,9.1
1619,by almada 346,2016,Apartamento,23712/AL,41.14957877265962,-8.611888909839564,9.4,9.7,9.1
1620,by almada 346,2016,Apartamento,23733/AL,41.14960135736983,-8.61192294625562,9.4,9.7,9.1
1621,by almada 346,2016,Apartamento,23699/AL,41.14958846906642,-8.611912497959661,9.4,9.7,9.1
1623,by almada - lofts & studios,2015,Apartamento,8661/AL,41.149535827381015,-8.611993896541511,9.4,9.7,9.1
1631,oporto view apartments 1º fr,2016,Apartamento,36341/AL,41.14936466734993,-8.612023710482422,9.0,9.6,8.7
1639,almada apartamentos,2015,Apartamento,20524/AL,41.15129029572949,-8.611894475125322,9.1,9.4,8.9
1641,alma-da-casa,2016,Apartamento,26557/AL,41.15151654876747,-8.611926447093227,9.7,9.6,9.6
1647,trindade 21,2016,Apartamento,34774/AL,41.15211670734754,-8.610304848370786,8.3,9.1,7.8
1648,quinta dos choupos act. hoteleiras e agriculas lda,2015,Apartamento,12563/AL,41.1525464558902,-8.611476447103794,10.0,10.0,10.0
1650,oportonow,2016,Apartamento,37776/AL,41.150491024556544,-8.609747365840105,9.3,9.6,9.1
1659,andorinha apartment,2016,Apartamento,30178/AL,41.15110088016559,-8.611918990288109,9.2,9.5,9.1
1660,the almada flats,2016,Apartamento,29495/AL,41.15111616536219,-8.611944983226138,8.8,9.3,8.5
1661,the almada flats,2016,Apartamento,29490/AL,41.15109217702109,-8.611938758856235,8.8,9.3,8.5
1662,almada garden apartment,2016,Apartamento,30453/AL,41.151084426000196,-8.611958436687786,8.4,9.0,8.0
1663,the almada flats,2016,Apartamento,29498/AL,41.151111556136414,-8.61189037313489,8.8,9.3,8.5
1664,the almada flats,2016,Apartamento,29503/AL,41.151105537152006,-8.611968409205671,8.8,9.3,8.5
1665,bonjardim duplex charming apartment,2016,Apartamento,37749/AL,41.15029420439297,-8.609393531147969,9.3,9.3,9.0
1666,loft oporto,2016,Apartamento,35466/AL,41.15030389739173,-8.609374448751561,10.0,10.0,10.0
1667,oporto sun - trindade,2016,Apartamento,35900/AL,41.150310270444116,-8.60940660735281,9.7,9.5,9.6
1668,tzerobonjardim,2016,Apartamento,36588/AL,41.15033103701049,-8.60937837443515,9.1,9.2,9.0
1678,c&c - cheap and cousy apartments porto,2016,Apartamento,36533/AL,41.1507232798835,-8.60782073349073,8.8,9.7,8.4
1683,anastasia apartments,2016,Apartamento,24285/AL,41.15052489276744,-8.603963762192674,9.4,9.5,9.2
1684,i love alegria,2016,Apartamento,28458/AL,41.15051609164061,-8.604057803869319,9.8,9.8,9.6
1685,picporto,2016,Apartamento,35718/AL,41.150544883783475,-8.604047009484345,9.9,9.8,9.9
1686,porto alegria´s place,2016,Apartamento,37063/AL,41.15050360610688,-8.604062911607365,9.4,9.4,9.0
1687,carluisa´s apartment,2015,Apartamento,20638/AL,41.1503665569337,-8.604030212874303,,,
1691,la quatriéme,2016,Estabelecimento de hospedagem,38240/AL,41.15052316365795,-8.602388263422304,8.0,8.3,8.2
1695,porto old town,2016,Apartamento,28964/AL,41.150367900715864,-8.608968557819217,9.3,9.4,9.0
1708,by sá da bandeira,2015,Apartamento,12200/AL,41.14962434332687,-8.607669316529659,9.1,9.4,8.6
1710,by sá da bandeira,2015,Apartamento,12922/AL,41.149598556730744,-8.607742774122496,9.4,9.7,9.1
1712,afonso fernandes & pereira fernandes - imobiliária lda,2014,Apartamento,5982/AL,41.149610103178595,-8.607689339310797,9.4,9.7,9.1
1715,porto bolhão i apartment,2014,Apartamento,5985/AL,41.14957333643153,-8.607753736734058,9.4,9.7,9.1
1721,portosoul formosa,2016,Apartamento,30026/AL,41.14902696107748,-8.609030944580015,9.3,9.6,9.2
1722,home sweet home... bolhão,2016,Estabelecimento de hospedagem,26753/AL,41.150644464579266,-8.606711133353802,9.4,9.6,9.2
1723,d.b. santa catarina,2016,Apartamento,33542/AL,41.15055620992525,-8.605718199298739,9.3,9.8,9.0
1727,feelporto downtown art tile,2016,Apartamento,26942/AL,41.1501343122643,-8.60685398104861,9.1,9.3,8.7
1734,villa bolhão,2014,Apartamento,5617/AL,41.14909751613181,-8.606619630635947,9.4,9.6,9.0
1735,villa bolhão,2014,Apartamento,5614/AL,41.14909010208146,-8.606599097644835,9.4,9.6,9.0
1736,villa bolhão/apartamentos,2014,Apartamento,5426/AL,41.14910679415564,-8.606651491304243,9.4,9.6,9.0
1737,villa bolhão/apartamentos,2014,Apartamento,5442/AL,41.149117768094584,-8.60668193952783,9.4,9.6,9.0
1738,villa bolhão/apartamentos,2014,Apartamento,5444/AL,41.14908464595849,-8.606580649134525,9.4,9.6,9.0
1741,chic & cozy apartments,2016,Apartamento,26951/AL,41.14902380542172,-8.603825841909657,9.0,9.2,9.0
1744,invicta,2016,Apartamento,23370/AL,41.1490167912993,-8.603941290975468,9.0,9.3,8.7
1745,são joão,2016,Apartamento,23371/AL,41.14902003258656,-8.603877238568433,9.0,9.3,8.7
1749,chillhouse - porto,2015,Apartamento,22464/AL,41.15270383281694,-8.607891253237662,9.6,9.5,9.4
1752,bonjardim apartment,2016,Apartamento,33554/AL,41.152771021383565,-8.607875187970455,,,
1754,js1,2016,Apartamento,37908/AL,41.152756389068614,-8.607915784715509,9.0,9.2,8.6
1759,metroloft,2016,Apartamento,32588/AL,41.15248950399037,-8.60876305144749,9.3,9.7,8.8
1760,trindade segundo,2016,Apartamento,33634/AL,41.15247622822175,-8.60877780804799,9.2,9.7,8.8
1761,trindade zero,2016,Apartamento,33632/AL,41.15249826499116,-8.608780902024122,,,
1770,santa catarina apartments,2016,Apartamento,34309/AL,41.15287348250917,-8.604939923937865,7.5,7.9,7.1
1780,stayin oporto música guest apartment - bolhão,2016,Apartamento,23833/AL,41.15147115165154,-8.607056493509772,8.3,9.0,8.3
1783,the5rooms.porto,2016,Apartamento,33182/AL,41.15117088133618,-8.607130510248055,9.8,9.4,9.5
1784,feel porto doc townhouse,2016,Apartamento,26378/AL,41.15213506735979,-8.606622405911768,9.4,9.2,9.1
1785,feel porto ruby townhouse,2016,Apartamento,25995/AL,41.15215089432398,-8.606680856963505,9.4,9.2,9.1
1786,oporto guest downtown sta. catarina,2016,Apartamento,37326/AL,41.1524964538177,-8.604947226083118,8.7,9.2,8.5
1790,enjoy porto apartment,2016,Apartamento,32785/AL,41.1533060087016,-8.607227826123738,9.2,9.0,9.5
1798,campos monteiro,2016,Apartamento,23437/AL,41.14956267975472,-8.596729886045965,9.4,8.6,9.3
1805,boa aventura apartment,2014,Apartamento,6484/AL,41.14927478025828,-8.598274197265427,9.4,9.3,9.2
1808,rs porto campanhã,2016,Apartamento,34134/AL,41.14968003622231,-8.590081928576383,8.7,7.9,8.8
1811,home sweet home,2016,Apartamento,36511/AL,41.165032314296944,-8.600570438598195,8.9,8.5,9.5
1825,airy and modern beachfront apartment,2015,Apartamento,20531/AL,41.154181630645226,-8.679155016181573,9.8,10.0,9.7
1826,apartamento - vista para o mar,2015,Apartamento,17905/AL,41.15416083090406,-8.679133099154965,9.5,9.9,9.2
1831,porto trendy by the beach,2015,Apartamento,4764/AL,41.15653725733807,-8.680361746281356,9.1,10.0,8.3
1842,baumhaus serviced apartments,2015,Apartamento,19182/AL,41.15666659497623,-8.622514657646029,9.2,8.6,8.5
1843,baumhaus serviced apartments,2015,Apartamento,19183/AL,41.15666958593571,-8.622483679559334,9.2,8.6,8.5
1844,baumhaus serviced apartments,2015,Apartamento,19147/AL,41.156691550608784,-8.622482465062523,9.2,8.6,8.5
1845,baumhaus serviced apartments,2015,Apartamento,19167/AL,41.156686947886904,-8.622453484206618,9.2,8.6,8.5
1846,baumhaus serviced apartments,2015,Apartamento,19178/AL,41.15670862198176,-8.622449464256864,9.2,8.6,8.5
1847,baumhaus serviced apartments,2015,Apartamento,19179/AL,41.1566893335968,-8.622508473809877,9.2,8.6,8.5
1848,baumhaus serviced apartments,2015,Apartamento,19180/AL,41.15671321872361,-8.622482592208195,9.2,8.6,8.5
1849,baumhaus serviced apartments,2015,Apartamento,19181/AL,41.156657769713114,-8.622464673762554,9.2,8.6,8.5
1855,porto insight apartment,2016,Apartamento,37540/AL,41.15508859969532,-8.61752810056636,9.6,9.2,9.3
1860,oporto guest cedofeita,2016,Apartamento,37322/AL,41.15593814549844,-8.616552084735176,8.5,8.4,8.3
1869,flor de lis,2016,Apartamento,32033/AL,41.15338280059621,-8.6121146243717,8.5,9.2,8.8
1876,porto spot apartment 2,2014,Apartamento,5492/AL,41.15454480256263,-8.609929245782848,9.0,8.8,9.0
1877,porto spot apartments 4,2014,Apartamento,5524/AL,41.15452640716767,-8.609880859870415,9.6,9.5,9.5
1878,porto center,2014,Apartamento,6397/AL,41.153787397448056,-8.611359405472408,9.2,9.3,8.9
1879,varanda sobre o porto,2016,Apartamento,38038/AL,41.15377974799499,-8.6112812772307,8.4,9.3,8.2
1888,pacote d'sonhos unipessoal ldª,2016,Apartamento,24177/AL,41.15571669117135,-8.602345468046677,8.9,8.1,8.7
1889,vintage apartment 2,2016,Apartamento,32731/AL,41.155677904089174,-8.602359887996379,8.9,8.1,9.0
1892,casa da porta amarela,2016,Apartamento,26347/AL,41.157098823396254,-8.59529520603982,9.4,8.3,9.6
1893,casa da porta azul,2016,Apartamento,26350/AL,41.15706089060165,-8.59528865414137,9.4,8.3,9.6
1894,casa da porta vermelha,2016,Apartamento,26349/AL,41.15706827975015,-8.59534113581184,9.4,8.3,9.6
1900,fontinha,2015,Apartamento,20326/AL,41.15615293734774,-8.60514021029569,7.5,8.0,7.7
1912,nice apart downtown porto,2016,Apartamento,25730/AL,41.155447998797776,-8.605856667238326,8.4,8.0,8.4
1915,dot oporto flats,2016,Apartamento,38226/AL,41.15499257409594,-8.609079749203204,9.5,9.2,9.4
1929,trindade,2015,Apartamento,12264/AL,41.15374050374157,-8.608703080274957,7.8,8.7,7.8
1932,feelporto panoramic townhouse,2015,Apartamento,18733/AL,41.15371061561844,-8.607660946908547,8.6,8.3,8.1
1935,nuno marinho,2015,Apartamento,16689/AL,41.15382251044948,-8.607455273644389,8.3,8.7,8.2
1937,portowine apartment,2016,Apartamento,33866/AL,41.15374805981912,-8.607424973899715,7.8,8.8,8.4
1951,my home in porto,2016,Apartamento,31786/AL,41.159917951909776,-8.626026664482005,9.4,8.9,9.3
1981,chopin,2016,Apartamento,23368/AL,41.158773236864015,-8.628049519186563,8.7,8.6,8.5
1982,vivaldi,2016,Apartamento,23365/AL,41.158751992121516,-8.628065432006283,8.7,8.6,8.5
1983,strauss,2016,Apartamento,23359/AL,41.15873156577311,-8.628078651284508,8.7,8.6,8.5
1984,mozart,2016,Apartamento,23355/AL,41.15876187533881,-8.628028228924384,8.7,8.6,8.5
1985,beethoven,2016,Apartamento,23346/AL,41.15874491826105,-8.628096777922226,8.7,8.6,8.5
1990,inlapa,2016,Apartamento,37513/AL,41.159219620776454,-8.612063807074696,9.3,8.7,9.1
2015,rs porto flats,2015,Apartamento,18028/AL,41.15936727943203,-8.608498825712411,8.0,7.9,7.9
2031,praça 66 guest house,2016,Apartamento,36564/AL,41.16077810205727,-8.603997139360834,-1.0,8.8,9.1
2049,manuel fernando teixeira afonso,2015,Apartamento,11254/AL,41.1426412418348,-8.605073834049046,9.7,9.8,9.4
2148,musical view porto,2014,Apartamento,5015/AL,41.16108416925022,-8.625006150199331,9.7,9.0,9.7
2150,apartment stay in fontainhas,2015,Apartamento,19596/AL,41.1443952973528,-8.602901239631715,9.1,9.1,9.0
2153,apartamento do infante,2016,Apartamento,25009/AL,41.144356171801334,-8.60289028646751,9.4,9.6,9.3
2155,gold river apartment,2016,Apartamento,29644/AL,41.14440796263218,-8.602863862086183,9.4,9.4,9.1
2161,opo down town blue,2016,Apartamento,32471/AL,41.14385777069548,-8.6140040386492,9.1,9.7,8.6
2163,vintage flores,2016,Apartamento,25750/AL,41.1438369070473,-8.614011957847705,9.7,9.6,9.2
2164,rosemary,2016,Apartamento,23223/AL,41.143833168948746,-8.614000239478264,9.1,9.7,8.7
2166,poppy flat,2016,Apartamento,23227/AL,41.1438343442131,-8.613970745004085,9.1,9.7,8.7
2167,go2oporto @flores iv,2016,Apartamento,23574/AL,41.14382285471498,-8.614001277503304,8.0,9.6,7.5
2177,rs porto boavista studios,2016,Apartamento,34129/AL,41.15659773226429,-8.64464107503354,8.7,8.3,8.7
2180,cathedral design apartments,2016,Apartamento,32969/AL,41.1428174505357,-8.612432245798697,9.4,9.7,9.1
2181,cathedral design apartments,2016,Apartamento,32949/AL,41.14282832992228,-8.612394191918405,9.4,9.7,9.1
2182,baumhaus serviced apartments,2015,Apartamento,19184/AL,41.156652909660835,-8.622489065158762,9.2,8.6,8.5
2186,by bolhão - apartments,2014,Apartamento,6320/AL,41.14915202547583,-8.606631558801553,9.5,9.6,9.3
2189,ana raquel catarino fernades gingeira martins,2014,Apartamento,5925/AL,41.150406848163236,-8.606845505033093,,,
2192,oporto lux city break,2014,Apartamento,5317/AL,41.150364478107804,-8.606820113752375,9.1,9.3,8.7
2193,oporto lux touwnhouse,2014,Apartamento,5253/AL,41.150343067411846,-8.60686210526704,9.1,9.3,8.7
2194,feelporto downtown poets flat,2015,Apartamento,18668/AL,41.15032396189713,-8.606897088651339,9.1,9.3,8.7
2201,porto ribeira flat,2016,Apartamento,25283/AL,41.142361675616336,-8.614766843812605,8.8,9.6,7.9
2208,oporto house 31,2016,Moradia,37861/AL,41.143885127886904,-8.60311950691589,9.0,8.9,9.1
2235,"santa catarina's home, i douro you",2015,Apartamento,22956/AL,41.15247214610358,-8.604948505726346,8.5,8.5,8.2
2238,stayinbonfim suites,2017,Estabelecimento de hospedagem,53943/AL,41.14924372414755,-8.59673919885476,-1.0,8.7,9.1
2240,oporto emerald,2017,Apartamento,55204/AL,41.15316822976968,-8.602566313943067,9.7,9.4,9.3
2247,porto sentido,2017,Apartamento,51218/AL,41.153161878666445,-8.602604723438011,9.7,9.5,9.6
2248,santa catarina apartments,2017,Apartamento,49359/AL,41.1549676072401,-8.604482036834021,9.3,9.5,8.8
2249,size,2017,Moradia,58828/AL,41.15497068367317,-8.60451610110667,9.8,9.9,9.5
2263,oporto 129,2017,Apartamento,42644/AL,41.15978239596953,-8.601028376253208,9.5,9.9,9.3
2264,glamour apt,2017,Apartamento,55023/AL,41.15978239596953,-8.601028376253208,9.4,9.6,9.5
2266,zelije,2017,Apartamento,60185/AL,41.15054522290112,-8.609887610232626,9.3,9.6,8.7
2269,top floor balcony apartment,2017,Apartamento,48518/AL,41.14878313891094,-8.600765253230145,9.5,9.4,8.6
2274,casa do alpendre,2017,Moradia,56251/AL,41.15157914849655,-8.585686696792909,9.9,9.4,9.8
2278,oporto lifestyle apartements,2017,Apartamento,52647/AL,41.14761339836575,-8.601716489653663,8.9,9.1,8.9
2280,oporto 7,2017,Apartamento,54833/AL,41.144810734623476,-8.5769585775101,8.9,8.2,9.1
2282,pexorental,2017,Apartamento,55611/AL,41.15085229667266,-8.616306576435639,5.2,7.5,5.0
2284,oporto ace place 2,2017,Apartamento,56430/AL,41.1515661441666,-8.614817876830056,8.6,9.4,8.4
2286,porto travelsâ´s nest,2017,Apartamento,60669/AL,41.15083743361178,-8.614757226458682,7.0,7.5,6.7
2288,liiiving in porto | downtown balcony apartment,2017,Apartamento,56916/AL,41.15146664544362,-8.613912247326784,,,
2290,porto belo clã©rigos,2017,Apartamento,58284/AL,41.1488825802104,-8.61499413043567,9.7,9.8,9.5
2292,aliados vista,2017,Apartamento,42614/AL,41.15031542185268,-8.612149911259333,,,
2303,home at porto - aliados - d. luis,2017,Apartamento,43850/AL,41.15031542185268,-8.612149911259333,9.6,9.8,9.3
2304,home at porto - aliados - infante,2017,Apartamento,43845/AL,41.15031542185268,-8.612149911259333,9.6,9.8,9.3
2305,home at porto - aliados - arrabida,2017,Apartamento,43853/AL,41.15031542185268,-8.612149911259333,9.6,9.8,9.3
2306,chic & cozy apartments,2017,Apartamento,48322/AL,41.15031542185268,-8.612149911259333,9.4,9.7,9.4
2307,home at porto - aliados - d. maria,2017,Apartamento,43839/AL,41.15031542185268,-8.612149911259333,9.6,9.8,9.3
2309,boavista,2017,Apartamento,57237/AL,41.15584290926324,-8.61698003975871,8.2,8.2,8.3
2311,casa de cedofeita,2017,Apartamento,47230/AL,41.15493480660824,-8.618916982070875,8.7,9.6,8.3
2312,art & city ii,2017,Apartamento,43286/AL,41.15493480660824,-8.618916982070875,9.3,9.5,8.9
2319,liiiving in porto | wood & charm apartment,2017,Apartamento,61361/AL,41.15191620305738,-8.610408897061992,8.9,9.2,8.8
2322,foz loft,2017,Apartamento,43565/AL,41.15365112777074,-8.675458638168568,9.7,9.5,9.3
2323,foz loft,2017,Apartamento,43570/AL,41.15365112777074,-8.675458638168568,9.7,9.5,9.3
2330,starry night balcony,2017,Apartamento,60884/AL,41.149311090677514,-8.616737766104015,9.3,9.6,9.3
2331,carregal apartment,2017,Apartamento,59616/AL,41.14931908351466,-8.61670662199433,,,
2332,oporto bernardes studios - clã©rigos,2017,Apartamento,59973/AL,41.14935264072461,-8.616714905444072,9.3,9.4,9.3
2337,porto comfort flat,2017,Apartamento,43137/AL,41.15429027555405,-8.626298690120654,8.3,7.9,8.4
2338,koolhouse,2017,Apartamento,51881/AL,41.149152584339156,-8.67191527072383,8.4,8.8,8.0
2340,by the river,2017,Apartamento,54778/AL,41.14056819763234,-8.612615649866896,9.2,9.8,8.7
2347,porto alegre,2017,Apartamento,46623/AL,41.15315077209087,-8.63055017900057,9.7,10.0,9.4
2353,orange apartment,2017,Apartamento,45963/AL,41.16780115759616,-8.60660079823408,8.8,7.7,8.9
2357,citybreak apartments sao bento,2017,Apartamento,50023/AL,41.146183435149425,-8.609243970962838,8.8,9.6,8.5
2358,citybreak apartments sao bento,2017,Apartamento,50122/AL,41.146183435149425,-8.609243970962838,8.8,9.6,8.5
2359,citybreak apartments sao bento,2017,Apartamento,50192/AL,41.146183435149425,-8.609243970962838,8.8,9.6,8.5
2360,citybreak apartments sao bento,2017,Apartamento,50202/AL,41.146183435149425,-8.609243970962838,8.8,9.6,8.5
2361,best sensations studio,2017,Apartamento,52944/AL,41.155995011145976,-8.607843824263385,,,
2362,doble jewel,2017,Apartamento,53038/AL,41.1537675710599,-8.609067072456975,,,
2363,porto downtown's panoramic view,2017,Apartamento,55532/AL,41.15372396991794,-8.609067701875825,,,
2371,oporto trindade flat,2017,Apartamento,40751/AL,41.15229477779234,-8.608812270707123,8.4,8.9,7.7
2373,river sideway,2017,Apartamento,38608/AL,41.1417464904786,-8.613721552402563,8.0,9.0,8.1
2378,ribeira ville porto apartment,2017,Estabelecimento de hospedagem,47362/AL,41.1417464904786,-8.613721552402563,9.5,9.8,9.3
2382,st. francisco apartamentos,2017,Apartamento,49884/AL,41.14115911613437,-8.616800182226898,8.6,9.6,8.4
2383,st. francisco apartamentos,2017,Apartamento,49867/AL,41.14117342362108,-8.616797261262862,8.6,9.6,8.4
2385,pelames55,2017,Apartamento,54554/AL,41.14368544093669,-8.611817186584597,10.0,10.0,10.0
2387,barredo,2017,Apartamento,44204/AL,41.14149985479506,-8.611185858796961,7.5,9.4,7.9
2388,poto city centre studios,2017,Apartamento,42945/AL,41.15584657660094,-8.6051817257177,8.0,7.7,8.3
2394,tilly apartments,2017,Apartamento,48401/AL,41.14389602510195,-8.609869843718007,9.9,9.9,9.9
2409,oporto herculano villa,2017,Moradia,60200/AL,41.14412959990363,-8.60329020026826,9.1,9.1,9.4
2410,oporto herculano villa,2017,Moradia,60200/AL,41.14412959990363,-8.60329020026826,9.1,9.1,9.4
2413,the passenger hostel,2017,Estabelecimento de hospedagem-Hostel,49602/AL,41.149660900167085,-8.610752999727751,-1.0,9.8,9.4
2414,typicalvilla oporto24,2017,Moradia,53755/AL,41.144025500440044,-8.60319570051839,9.1,8.8,9.0
2419,magalhães apartments,2017,Apartamento,43746/AL,41.15193462388829,-8.597445068460022,9.2,8.7,9.4
2425,oporto garden house,2017,Moradia,57875/AL,41.16575072649178,-8.66460548030269,8.5,8.0,8.0
2430,parque da cidade,2017,Moradia,52460/AL,41.167232815857886,-8.66706279262422,9.0,8.8,8.9
2435,antonio moreira,2017,Apartamento,60262/AL,41.152255026758695,-8.600093534494075,-1.0,8.0,8.5
2441,oporto elegance,2017,Apartamento,59459/AL,41.15476276790962,-8.599277938273088,8.9,8.2,8.9
2453,nuno neto,2017,Apartamento,53819/AL,41.15418969010195,-8.599754635558067,7.8,7.7,7.7
2463,a casinha do porto,2017,Apartamento,41617/AL,41.157871923079014,-8.602500302159367,8.5,7.8,8.1
2466,wine&hapiness,2017,Apartamento,43705/AL,41.15906476700562,-8.601027608339548,,,
2467,casa da alegria,2017,Apartamento,45154/AL,41.15908384627799,-8.601022700136346,6.3,6.6,5.9
2473,a nossa casa,2017,Apartamento,57192/AL,41.1713346948161,-8.657674925605807,9.4,8.4,9.2
2484,campanha 001,2017,Apartamento,51952/AL,41.15098386306586,-8.59071224386928,8.6,7.4,8.5
2485,campanha 002,2017,Apartamento,51959/AL,41.15102375607612,-8.590745300900911,8.6,7.4,8.5
2486,campanha 101,2017,Apartamento,51965/AL,41.15101533467514,-8.59070615821726,8.6,7.4,8.5
2487,campanha 102,2017,Apartamento,51970/AL,41.15099715509113,-8.59076962291189,8.6,7.4,8.5
2490,campanha 003,2017,Apartamento,51986/AL,41.15093922036331,-8.590735864570757,8.6,7.4,8.5
2491,campanha 103,2017,Apartamento,51993/AL,41.15094001806215,-8.590774955185749,8.6,7.4,8.5
2496,happy apartement porto,2017,Apartamento,59053/AL,41.15819104334579,-8.601431740728263,7.8,8.1,8.2
2498,al-gomes,2017,Apartamento,59836/AL,41.1594696769599,-8.601759633040212,9.2,8.9,9.4
2499,alojamento local,2017,Apartamento,50814/AL,41.15777660493565,-8.600643065567516,8.6,8.6,9.4
2503,seculo soft,2017,Estabelecimento de hospedagem,39321/AL,41.15740141512616,-8.604431144668004,-1.0,7.8,8.5
2514,zig zag alegria apartment,2017,Apartamento,48650/AL,41.15701382448824,-8.602232731457528,7.9,7.8,7.4
2519,porto riad,2017,Estabelecimento de hospedagem,43787/AL,41.15540556779237,-8.602435960490881,7.6,7.4,8.0
2521,9:36 no porto,2017,Moradia,54237/AL,41.15490777765044,-8.602364745349956,8.7,8.4,8.8
2529,monte dos congregados,2017,Apartamento,61150/AL,41.15757113829822,-8.601076786335165,,,
2530,amazonia apartment,2017,Apartamento,50515/AL,41.16159198137397,-8.601048187723427,8.8,8.2,8.8
2531,m&m space apartments mm3,2017,Apartamento,52228/AL,41.147763472940625,-8.600482280482465,9.7,9.5,9.6
2535,wine and the city - luxury,2017,Apartamento,38644/AL,41.15519475018518,-8.603080686281745,9.1,8.3,9.2
2536,wine and the city - cozy,2017,Apartamento,38649/AL,41.15516397806141,-8.603090395439246,9.1,8.3,9.2
2537,wine and the city - standard,2017,Apartamento,38650/AL,41.15514864553225,-8.602994303666527,9.1,8.3,9.2
2538,wine and the city - exclusive,2017,Apartamento,38651/AL,41.15518265219195,-8.602980361023802,9.1,8.3,9.2
2539,wine and the city - premium,2017,Apartamento,38653/AL,41.15517277411273,-8.603036556756877,9.1,8.3,9.2
2540,oporto bernardes studios - heroísmo,2017,Apartamento,45491/AL,41.14773976724218,-8.58903158713891,9.2,8.2,9.2
2565,porto history,2017,Apartamento,48536/AL,41.15118101368129,-8.601580373663342,10.0,10.0,10.0
2567,porto alive,2017,Apartamento,50418/AL,41.151208195872314,-8.601489639087802,,,
2579,apartamento pessoa,2017,Apartamento,61022/AL,41.14910179061515,-8.597490014055078,9.6,9.6,9.4
2584,p.ause,2017,Estabelecimento de hospedagem,51445/AL,41.15046698266944,-8.594498726814308,9.4,8.5,9.2
2585,belas artes,2017,Apartamento,50991/AL,41.14645042986885,-8.600245230179349,9.6,9.2,10.0
2596,oporto near,2017,Moradia,49491/AL,41.14761296300114,-8.601321143607496,9.5,9.1,9.3
2601,oporto vintage house,2017,Apartamento,52483/AL,41.15423978030757,-8.598085884485902,8.7,7.6,8.8
2604,cosy apartment vintage oporto,2017,Apartamento,57429/AL,41.14713870090669,-8.589921825051874,8.9,8.5,8.5
2606,la paz oporto touristic apartment,2017,Apartamento,44303/AL,41.15662085939539,-8.594643115091483,8.8,7.8,8.7
2609,ricardo da silva teixeira,2017,Apartamento,43794/AL,41.14873347267851,-8.601540136375585,9.7,9.6,9.6
2627,d. joao iv,2017,Apartamento,48799/AL,41.15018688920589,-8.602116815299656,9.2,9.3,9.2
2632,aguiar apartments,2017,Apartamento,42932/AL,41.1451687016254,-8.597766327910392,8.9,8.6,8.6
2635,doze casas guest house,2017,Apartamento,47375/AL,41.15825185277054,-8.602625907974103,8.4,7.8,8.7
2636,doze casas guest house,2017,Apartamento,47382/AL,41.158253672829375,-8.602588409035532,8.4,7.8,8.7
2637,doze casas guest house,2017,Apartamento,47387/AL,41.15825619709112,-8.602553751827315,8.4,7.8,8.7
2638,doze casas guest house,2017,Apartamento,47402/AL,41.15827333547988,-8.60255734148778,8.4,7.8,8.7
2639,db 24 agosto i,2017,Apartamento,48889/AL,41.147364753125096,-8.600057610131804,9.5,9.2,9.6
2640,apartamento com terraco virado a sul,2017,Apartamento,44859/AL,41.15949139319547,-8.603818546353056,6.8,7.3,7.1
2646,lazaro downtown apartment,2017,Apartamento,44017/AL,41.14644975410898,-8.598678919977363,9.4,8.8,10.0
2648,eliza,2017,Apartamento,42943/AL,41.14644998902361,-8.596382677329334,7.4,8.3,6.8
2650,invicta house,2017,Apartamento,54274/AL,41.16625877974053,-8.5876272616967,8.9,8.3,9.1
2651,flamingo rose,2017,Apartamento,56877/AL,41.16638866317679,-8.587154501024779,8.8,7.7,8.8
2656,57,2017,Moradia,56101/AL,41.14450347368309,-8.597897840576763,9.3,9.1,9.3
2657,oporto apartments group heroismo,2017,Apartamento,58028/AL,41.14642449135104,-8.593944792399787,7.3,8.0,7.5
2661,oporto's duke apartment,2017,Apartamento,48335/AL,41.145256852192176,-8.598243317736115,9.5,9.2,9.4
2662,dukes apartments,2017,Apartamento,49177/AL,41.145264156997506,-8.598204289053967,9.4,9.4,9.4
2664,bessa apartment,2017,Apartamento,53653/AL,41.150531009998986,-8.593279151396315,9.6,8.7,9.5
2672,cozzy & nature at porto,2017,Apartamento,50616/AL,41.14829109096362,-8.599237814061361,8.9,8.9,9.2
2674,t0 house ii,2017,Moradia,55555/AL,41.14773180302305,-8.600817489608328,9.2,8.9,9.2
2675,guest house m&s porto,2017,Estabelecimento de hospedagem,55946/AL,41.16067218105826,-8.602480130802636,7.2,7.2,6.9
2678,requinte,2017,Moradia,44367/AL,41.14621241475771,-8.593663041466845,9.4,8.8,9.1
2679,lima house,2017,Apartamento,51006/AL,41.16031862329163,-8.600460808186337,8.5,7.7,8.7
2681,mansaodosherois,2017,Moradia,60590/AL,41.146318512926264,-8.592836360170407,7.7,8.1,7.7
2686,lovely,2017,Apartamento,49368/AL,41.14671166575882,-8.59084746961194,8.6,8.2,8.4
2690,casa da arvore,2017,Apartamento,39982/AL,41.14681011993802,-8.599506280720783,9.3,9.0,9.1
2693,from porto with love,2017,Apartamento,40080/AL,41.15472911375227,-8.599660226604517,9.1,7.9,9.3
2695,laz apartment,2017,Apartamento,58461/AL,41.14343267348053,-8.596843466836432,9.7,9.1,9.6
2718,morgado mateus apartment,2017,Apartamento,60559/AL,41.146633509647884,-8.601656466352383,7.7,8.3,7.5
2722,porto city center apartment,2017,Apartamento,38353/AL,41.14904555413476,-8.601721385705853,9.6,9.5,9.7
2724,apartment firehouse by sweet porto - 15,2017,Apartamento,46899/AL,41.149087524180196,-8.601711598368894,9.4,9.1,9.2
2725,apartment firehouse by sweet porto - 14,2017,Apartamento,46922/AL,41.149061226338574,-8.601734104379895,9.4,9.1,9.2
2726,apartment firehouse by sweet porto - 13,2017,Apartamento,46934/AL,41.14908079227282,-8.601726678761528,9.4,9.1,9.2
2727,apartament firehouse by sweet porto - 12,2017,Apartamento,46960/AL,41.14903262323331,-8.601737683290006,9.4,9.1,9.2
2728,apartament firehouse by sweet porto - 11,2017,Apartamento,46969/AL,41.14901505517942,-8.601722429262024,9.4,9.1,9.2
2732,porto live n experience - d. joao iv 786,2017,Apartamento,58588/AL,41.15357525198308,-8.602268151773044,8.3,7.6,7.9
2736,campanha studios,2017,Estabelecimento de hospedagem,39504/AL,41.1500425901566,-8.586443196040047,8.7,8.7,8.4
2743,porto apartments,2017,Apartamento,58710/AL,41.15819945310714,-8.578480732176722,7.4,7.4,8.1
2751,cn oporto apartments,2017,Apartamento,49676/AL,41.14783710071561,-8.601393268731114,7.6,8.2,7.6
2752,cn oporto apartments,2017,Apartamento,49832/AL,41.14784786714726,-8.601381999449544,7.6,8.2,7.6
2766,b. arts i,2017,Apartamento,46860/AL,41.145693506031805,-8.600044257536437,8.8,8.8,8.7
2767,b. arts ii,2017,Apartamento,46904/AL,41.145696576587255,-8.600021429389427,8.8,8.8,8.7
2768,b. arts iii,2017,Apartamento,46913/AL,41.14566613841443,-8.600036971718334,8.8,8.8,8.7
2769,b. arts iv,2017,Apartamento,46920/AL,41.14570960639673,-8.60003964445474,8.8,8.8,8.7
2776,aromas flavors tours - apartment velasquez,2017,Apartamento,59890/AL,41.16068268462602,-8.591181741397047,9.8,8.9,10.0
2777,liiiving in porto | cosy experience apartment i,2017,Apartamento,50322/AL,41.166020254368604,-8.56911945434027,8.9,7.2,8.7
2779,bg apartments,2017,Apartamento,41560/AL,41.16483215222218,-8.61739611574222,8.1,7.1,8.7
2782,bonjoia apartments,2017,Apartamento,55831/AL,41.15302552494832,-8.576459980248478,8.1,7.1,8.2
2794,ana rita osã³rio soares,2017,Apartamento,52345/AL,41.14969146994004,-8.616938007386299,9.3,9.6,9.3
2795,marta daniela da silva rocha oliveira coelho,2017,Apartamento,52347/AL,41.149725189996225,-8.616822423908769,9.1,9.7,9.2
2797,93 cedofeita apartments a,2017,Apartamento,49901/AL,41.14973301320163,-8.61689967728035,8.4,9.5,8.5
2801,oporto guest downtown cedofeita,2017,Apartamento,49241/AL,41.149854626025146,-8.616892893195736,9.1,9.7,9.1
2807,porto charming studio,2017,Apartamento,52367/AL,41.151581663662164,-8.613716668072971,8.1,8.0,8.3
2814,art room,2017,Estabelecimento de hospedagem,41175/AL,41.15178249697425,-8.612311529714695,9.1,9.0,8.8
2817,cantinho de cedofeita,2017,Apartamento,48537/AL,41.15461617997594,-8.618734326732936,7.9,7.9,7.9
2819,oporto rustic,2017,Moradia,53112/AL,41.1458976278366,-8.584097813235317,9.2,7.9,9.5
2820,martires da liberdade garden,2017,Apartamento,45289/AL,41.150994671421465,-8.614340746055825,,,
2821,liiiving in porto | heart of porto apartment,2017,Apartamento,52959/AL,41.15097236384652,-8.614291254737054,9.3,7.5,9.0
2823,atticoporto,2017,Apartamento,54145/AL,41.15098226951319,-8.614315281244298,8.7,9.3,8.8
2826,porto downtown house,2017,Apartamento,60601/AL,41.15491708121865,-8.617663857929758,6.5,7.6,6.4
2835,porto box,2017,Apartamento,48318/AL,41.15947066638486,-8.590885009411014,,,
2840,antiquarium private residence,2017,Moradia,46587/AL,41.15242042070993,-8.6137885547283,8.3,9.3,8.2
2845,lapa 101,2017,Apartamento,52985/AL,41.15702512389705,-8.61769435682048,9.1,8.1,9.0
2846,residencial costa verde,2017,Estabelecimento de hospedagem,49688/AL,41.16271690554836,-8.610612545721386,6.7,7.0,6.6
2847,casa da praca,2017,Estabelecimento de hospedagem,46191/AL,41.15519160858665,-8.613487903263954,9.4,9.2,9.2
2849,charming house cedofeita,2017,Estabelecimento de hospedagem,48300/AL,41.1547247664746,-8.615417517358818,-1.0,8.4,8.8
2850,alvares cabral guest house,2017,Estabelecimento de hospedagem,44679/AL,41.15460717511526,-8.614790861855733,8.5,8.4,8.4
2857,cdc apartments 3,2017,Moradia,40441/AL,41.15635814912065,-8.618847997497003,9.2,8.7,8.8
2860,the rooster of portugal,2017,Apartamento,44028/AL,41.151214962886634,-8.618748228014933,8.7,9.0,8.8
2863,enjoy porto,2017,Estabelecimento de hospedagem,48666/AL,41.150407345590516,-8.61365742259321,-1.0,9.5,9.2
2864,oporto guest downtown miguel bombarda,2017,Apartamento,51975/AL,41.14961346410107,-8.621489838509927,8.1,8.8,7.9
2866,mercador guest house,2017,Estabelecimento de hospedagem,41686/AL,41.149669392829956,-8.621453903201468,-1.0,8.9,8.6
2871,al cedofeita,2017,Apartamento,60721/AL,41.15293185007535,-8.618107840430575,-1.0,9.1,8.9
2874,living porto apartments,2017,Apartamento,38336/AL,41.150426810756926,-8.60967886096124,9.1,9.5,8.9
2875,living porto apartments,2017,Apartamento,38339/AL,41.150417507562906,-8.60969620822031,9.1,9.5,8.9
2876,living porto apartments,2017,Apartamento,38340/AL,41.150436295942455,-8.60967514767344,9.1,9.5,8.9
2877,living porto apartments,2017,Apartamento,38344/AL,41.150432321073936,-8.609700176710152,9.1,9.5,8.9
2878,living porto apartments,2017,Apartamento,38347/AL,41.15044128099666,-8.609693937733603,9.1,9.5,8.9
2879,living porto apartments,2017,Apartamento,38349/AL,41.15048940548819,-8.609800935305023,9.1,9.5,8.9
2880,silver porto,2017,Moradia,59822/AL,41.1600835564906,-8.590744451724483,8.4,8.1,8.7
2885,oporto meet & dream,2017,Apartamento,46426/AL,41.15960457464816,-8.584181230183315,9.6,9.3,9.6
2886,4portoapartments#1,2017,Apartamento,48355/AL,41.15029862075902,-8.613260837901603,9.9,9.8,9.5
2887,4portoapartments#2,2017,Apartamento,48361/AL,41.15027520316501,-8.61327768698283,9.8,9.9,9.6
2888,the garden,2017,Apartamento,53298/AL,41.15025655574056,-8.613293310639426,9.3,9.6,9.6
2889,liiiving in porto | duplex downtown flat,2017,Apartamento,59652/AL,41.150231234639136,-8.61330951559271,9.3,8.8,8.1
2891,check-in loft porto,2017,Apartamento,40669/AL,41.15173708505369,-8.613738137307687,,,
2894,surya constituicao apartment,2017,Apartamento,47429/AL,41.16299549861139,-8.612183100146082,8.4,7.7,8.2
2900,beautiful central oporto studio,2017,Apartamento,60759/AL,41.155563055664786,-8.616021293165792,,,
2901,our home city flat,2017,Apartamento,41246/AL,41.15551225194335,-8.615327180070915,9.4,9.0,9.5
2904,bcharming apartment,2017,Apartamento,59113/AL,41.162458637108266,-8.618857424407556,8.5,7.4,8.5
2905,porto belo,2017,Apartamento,40249/AL,41.15261066164059,-8.613525514137034,9.2,9.2,9.1
2907,msc flat 5,2017,Apartamento,41764/AL,41.15262400281018,-8.613525611870225,9.5,9.3,9.2
2909,pachecos,2017,Moradia,58643/AL,41.16402859818288,-8.616090068469818,8.0,6.9,8.6
2910,t2 ml 190 3.3,2017,Apartamento,56853/AL,41.152067292588185,-8.613635888023648,8.3,8.4,7.9
2916,charmoso stãºdio,2017,Apartamento,58537/AL,41.151931293148984,-8.613643921401508,9.0,8.9,8.9
2918,rose green loft,2017,Apartamento,59853/AL,41.15192997418568,-8.61361743443999,9.9,9.7,9.9
2919,paulo filho,2017,Apartamento,60542/AL,41.15193520513006,-8.613734096299048,,,
2920,renaissance studio,2017,Apartamento,52900/AL,41.15190254353782,-8.613677889625933,,,
2921,the liberty studio,2017,Apartamento,58431/AL,41.15190219040044,-8.613648257637715,8.4,7.9,8.8
2922,lapa 39 - porto downtown studio,2017,Apartamento,48362/AL,41.156055580679705,-8.61343161291893,9.1,8.5,8.8
2923,sunny home,2017,Apartamento,50506/AL,41.15605106557665,-8.613371688288703,,,
2928,pinheiros 102,2017,Apartamento,51895/AL,41.150776433216485,-8.613869132661232,8.9,9.2,8.4
2937,lapa apartments,2017,Apartamento,54806/AL,41.15892571291122,-8.61090457150504,9.0,8.3,9.0
2938,lapa apartments,2017,Apartamento,50155/AL,41.15891823560371,-8.61086483379661,8.9,7.9,9.3
2939,go2oporto@ living almada,2017,Apartamento,57292/AL,41.151165597054046,-8.61226269398759,8.8,9.1,8.4
2940,ivcorreia,2017,Apartamento,50564/AL,41.15040276604601,-8.613144292180756,9.6,9.8,9.4
2946,pensio bastos -a. almada,2017,Apartamento,50507/AL,41.15336013809831,-8.612155973314003,8.2,8.6,8.3
2947,almada 665,2017,Apartamento,54537/AL,41.153343162277174,-8.612113297209506,8.4,8.5,8.3
2955,almada loft,2017,Apartamento,52244/AL,41.150569362186594,-8.612274361368836,9.6,9.8,9.5
2957,porto fado apartment,2017,Apartamento,38707/AL,41.150770712721325,-8.612190807853525,9.0,9.6,8.6
2958,almada studio 419,2017,Apartamento,48952/AL,41.150763355729204,-8.612298549570555,9.5,9.7,9.5
2959,almada tiles apartment,2017,Apartamento,49607/AL,41.150762570659055,-8.612258199606934,8.9,9.5,8.6
2960,porto lovers almada,2017,Apartamento,50351/AL,41.150762033807794,-8.61221532957113,,,
2962,patio alma,2017,Apartamento,54002/AL,41.15077376707686,-8.612315646294363,,,
2970,oporto downtown apartament,2017,Apartamento,38865/AL,41.155996299328315,-8.616330622310286,8.3,7.9,8.3
2971,boavista 288,2017,Apartamento,52733/AL,41.15597957244221,-8.616699883898939,8.2,8.4,8.1
2979,apartment porto,2017,Apartamento,46609/AL,41.15169502757698,-8.617469357418926,9.2,9.3,9.2
2980,alianca terrace,2017,Apartamento,45143/AL,41.16407767639811,-8.61725128448362,9.3,7.8,9.4
2983,loft da lulu,2017,Apartamento,59809/AL,41.153415911336886,-8.612470317593736,,,
2992,forrester apartment,2017,Apartamento,40416/AL,41.15660047111231,-8.619563579081435,6.8,8.0,6.1
3003,sol da nave,2017,Estabelecimento de hospedagem,50030/AL,41.164222872257454,-8.611200238877716,8.7,7.7,8.8
3007,portopleiad,2017,Moradia,55224/AL,41.16228805990059,-8.616613455075976,7.9,6.9,8.0
3009,housewithgarden,2017,Moradia,44212/AL,41.149890215083516,-8.61548131471266,7.6,8.4,7.0
3011,porto belo carmo apartment,2017,Apartamento,59752/AL,41.15002274285695,-8.616642578777647,9.5,9.7,9.4
3013,bragas cozy apartment w/ parking space,2017,Apartamento,53385/AL,41.15276477612564,-8.61612743006708,9.2,9.2,8.8
3025,music house,2017,Apartamento,57573/AL,41.16039532355544,-8.631464307344586,8.6,8.4,8.7
3027,living porto 1,2017,Apartamento,60987/AL,41.1561217553378,-8.618771309293056,9.5,8.9,9.4
3035,apartamento da lapa,2017,Apartamento,58679/AL,41.15666426598109,-8.613567500288852,9.5,8.0,9.5
3041,casa carolina,2017,Estabelecimento de hospedagem,47015/AL,41.1504704310262,-8.617201494681494,-1.0,9.4,8.9
3043,boavista eco-luxury house,2017,Estabelecimento de hospedagem,55535/AL,41.158931213520574,-8.633841698772287,-1.0,8.6,8.7
3045,arcelino oliveira cedofeita,2017,Apartamento,54383/AL,41.15315907593307,-8.621155871988352,7.6,7.8,7.4
3049,green balconies flat,2017,Apartamento,59542/AL,41.15004647589875,-8.613243400967526,9.7,9.8,9.4
3054,two rooms apartment breiner - arts neighbourhood,2017,Apartamento,50639/AL,41.150893391467676,-8.619838925381146,,,
3055,studio breiner - arts neighbourhood,2017,Apartamento,50642/AL,41.150923617582855,-8.619874213158296,,,
3057,bras apartment,2017,Apartamento,41211/AL,41.16036451321643,-8.610218928550767,8.3,8.9,8.2
3062,casa breiner i,2017,Apartamento,53497/AL,41.15105508326624,-8.62009848810388,9.0,8.9,8.3
3079,apartment boavista roundabout by sweet porto - 3t,2017,Apartamento,46894/AL,41.1587197238667,-8.628125306405492,8.7,8.6,8.5
3087,residences navy,2017,Apartamento,55663/AL,41.15645957988198,-8.620991610009378,8.9,8.6,9.0
3103,liiiving in porto | avenida de franca,2017,Apartamento,49002/AL,41.15957061575103,-8.62845071954585,,,
3140,montecativo apartamento,2017,Apartamento,45999/AL,41.15965239174553,-8.617311925851661,9.6,8.7,9.6
3141,bombarda flat,2017,Apartamento,42686/AL,41.14977748016197,-8.620661481151616,9.5,9.2,9.6
3144,bg apartments,2017,Apartamento,58874/AL,41.15404856705682,-8.621102410798356,8.5,8.8,8.6
3146,portovivo quental apartamento,2017,Apartamento,44612/AL,41.16140380603582,-8.611234008342501,8.9,8.2,9.0
3150,foz residence,2017,Apartamento,46398/AL,41.15363652110742,-8.669978268085098,8.9,8.4,8.5
3155,foz loft apartments - by the river,2017,Apartamento,40449/AL,41.14903679775718,-8.668140687064199,9.6,9.7,9.1
3159,lapa estãºdio,2017,Apartamento,61243/AL,41.16039546880454,-8.611840670300767,6.6,7.2,7.1
3160,oprto guest downtown rosario,2017,Apartamento,39248/AL,41.15086191893297,-8.621286650909573,8.6,9.0,8.2
3176,feel porto,2017,Apartamento,48394/AL,41.16351664404386,-8.622878739029273,8.7,7.9,8.3
3184,farolflat,2017,Apartamento,60141/AL,41.150779924891005,-8.67621775225452,9.4,9.5,9.3
3195,casa gloria porto,2017,Moradia,49062/AL,41.15928971848752,-8.613454965849993,8.0,7.3,8.0
3202,o quarto direito,2017,Apartamento,45827/AL,41.16038690080532,-8.636510220490857,9.3,8.4,9.3
3206,virtudes patio,2017,Apartamento,41836/AL,41.14449093489387,-8.617995628829274,,,
3219,clerigos-virtudes penthouse,2017,Apartamento,40448/AL,41.144330470811845,-8.617637182292743,8.2,9.4,8.0
3221,atlântico flat douro,2017,Apartamento,58585/AL,41.15101994744853,-8.651093009119496,9.3,8.7,9.2
3225,casa do jardim,2017,Moradia,48644/AL,41.15175172989513,-8.649282131135099,9.6,9.7,9.3
3226,best house center,2017,Apartamento,46802/AL,41.15339689789216,-8.630863935897628,9.2,9.1,9.0
3231,flats 323,2017,Apartamento,60862/AL,41.16151266199785,-8.637724892257772,9.1,8.1,9.0
3233,belos ares 202,2017,Apartamento,46428/AL,41.15992246936134,-8.637822396904465,9.1,8.9,8.9
3234,house of douro view,2017,Apartamento,56934/AL,41.146658544221935,-8.631355652507933,8.4,8.6,8.0
3235,house of douro view,2017,Apartamento,56937/AL,41.14664401532911,-8.631327176579667,8.4,8.6,8.0
3241,the colony guesthouse,2017,Estabelecimento de hospedagem,47313/AL,41.152610703481955,-8.622205044821753,-1.0,8.2,8.4
3248,hipster's dream by the river,2017,Apartamento,49009/AL,41.14950261727175,-8.652890973471452,8.9,8.9,8.9
3271,joao goncalo maio almeida,2017,Apartamento,41466/AL,41.1565192533896,-8.647697979938869,9.6,8.3,9.7
3277,casa da inês,2017,Apartamento,48519/AL,41.15380683104764,-8.62632965410619,8.2,8.6,8.2
3281,atlântico flat,2017,Apartamento,58582/AL,41.15099861787169,-8.649106713374515,9.1,8.3,9.3
3285,seaside luxury house in porto,2017,Moradia,54951/AL,41.15298729699253,-8.67617280630252,8.8,9.1,8.4
3286,private villa porto,2017,Estabelecimento de hospedagem,48516/AL,41.144407857477255,-8.621719789133081,-1.0,9.3,9.6
3287,oscar place,2017,Apartamento,45162/AL,41.14452540752083,-8.621530360144563,9.5,9.3,9.3
3288,riverside oporto`s garden,2017,Apartamento,50112/AL,41.14456345531309,-8.621490932134595,9.2,9.0,9.3
3293,porto flats,2017,Apartamento,58574/AL,41.151205575592456,-8.628164898369459,8.1,8.3,8.0
3297,boavista oporto center apart (6p),2017,Apartamento,53105/AL,41.15143392775438,-8.628676768530507,9.8,9.1,9.8
3301,art district apartment,2017,Apartamento,43071/AL,41.14930588899884,-8.620277633332305,8.8,8.8,8.3
3304,r&o - river & ocean,2017,Apartamento,45618/AL,41.15445053668678,-8.647564278531014,8.5,7.9,8.8
3310,flower's downtown,2017,Apartamento,61266/AL,41.14544333114143,-8.620249426448463,9.3,9.3,9.3
3315,lost apartments,2017,Apartamento,59469/AL,41.14411537005283,-8.62246238503434,9.7,9.5,9.7
3321,guest house monte dos judeus,2017,Moradia,48663/AL,41.14413194097556,-8.620423633239831,8.9,8.3,9.0
3325,aloha porto apartment,2017,Apartamento,46944/AL,41.152798683873925,-8.63042185615342,,,
3335,douro river stay,2017,Apartamento,50446/AL,41.14310482934733,-8.619989620563448,9.1,9.2,8.6
3341,14 esquadra - cais das pedras guest house,2017,Estabelecimento de hospedagem,41274/AL,41.14618228303773,-8.630860102888358,8.7,8.8,8.3
3345,happy porto hostel & apartments,2017,Estabelecimento de hospedagem-Hostel,43597/AL,41.14443149209802,-8.623361883344037,8.9,8.6,8.8
3349,predicados do douro palace,2017,Estabelecimento de hospedagem,54363/AL,41.14856008904862,-8.624541772975704,-1.0,8.9,9.1
3355,cristal arts loft porto,2017,Apartamento,56111/AL,41.14957816399612,-8.62419636132456,9.0,9.1,9.2
3361,country apartment,2017,Apartamento,43227/AL,41.16604892787889,-8.59710790557439,9.3,9.1,9.3
3363,keep porto,2017,Apartamento,61238/AL,41.16696154957531,-8.595050366810067,8.0,7.5,7.9
3367,oporto cozy paranhos 2,2017,Apartamento,48805/AL,41.17444022777913,-8.60653787199127,8.9,8.6,8.4
3368,oporto cozy paranhos,2017,Apartamento,50887/AL,41.174433643199215,-8.606574715303381,8.9,8.6,8.4
3370,citybreak apartments douro view,2017,Apartamento,45330/AL,41.143347060725084,-8.618613027066559,9.1,9.5,8.9
3371,citybreak apartments douro view,2017,Apartamento,45338/AL,41.14336390717896,-8.61868595318681,9.1,9.5,8.9
3372,citybreak apartments douro view,2017,Apartamento,45339/AL,41.143358778781426,-8.618545985837976,9.1,9.5,8.9
3373,utopias e mordomias 369,2017,Apartamento,59801/AL,41.18411862970095,-8.607611350997619,9.4,8.4,9.5
3378,oporto cozy studio,2017,Apartamento,48798/AL,41.17450415280789,-8.606430979579613,9.0,8.8,8.9
3415,porto com tradicao,2017,Apartamento,48968/AL,41.142199347179734,-8.618448655294275,9.0,9.4,8.6
3424,sophia`s flat,2017,Apartamento,41771/AL,41.15705024333524,-8.6782821249473,9.7,9.7,9.1
3426,antas house,2017,Apartamento,45044/AL,41.17543051753353,-8.586491462438133,7.9,6.9,8.1
3430,casa das taipas,2017,Apartamento,44169/AL,41.14272748458366,-8.617441116840041,9.2,9.7,9.3
3432,cozy central apart porto,2017,Apartamento,55074/AL,41.16317113397118,-8.60267498328136,9.5,9.1,9.6
3436,serpas,2017,Moradia,58636/AL,41.16664412236919,-8.620497931215523,7.7,6.6,7.9
3442,casa quinta do covelo,2017,Apartamento,41336/AL,41.163460257578635,-8.606748956925514,9.0,8.5,9.2
3444,casa kopke i,2017,Apartamento,41787/AL,41.165555648780476,-8.60867297264099,9.4,8.6,9.2
3445,casa kopke ii,2017,Apartamento,53882/AL,41.16549939494421,-8.608680132231745,9.4,8.6,9.2
3449,casa velha guesthouse,2017,Moradia,51005/AL,41.16488590331806,-8.601194268826466,9.6,9.0,9.6
3452,liliana freitas,2017,Estabelecimento de hospedagem,53078/AL,41.16627386283593,-8.6168462302581,7.7,6.8,7.9
3458,marques house,2017,Moradia,42547/AL,41.16229182243861,-8.606564481038216,8.1,8.1,8.3
3467,apartamento t1+1 alvaro casteloes,2017,Apartamento,41810/AL,41.167118776215574,-8.6033126297002,9.4,8.8,9.9
3469,portowhite charming house,2017,Apartamento,60312/AL,41.164670657698586,-8.60868082017488,-1.0,9.2,9.6
3471,ac,2017,Moradia,39336/AL,41.164543998260626,-8.606702856020814,7.9,7.2,8.4
3480,731 metro garden penthouse,2017,Apartamento,38280/AL,41.166757082066376,-8.595632017065245,8.6,8.4,8.5
3481,731 yellow metro penthouse,2017,Apartamento,61262/AL,41.16673651107843,-8.595640268851902,8.6,8.4,8.5
3482,731 metro garden apartment,2017,Apartamento,61274/AL,41.16674276588837,-8.59562518038522,8.6,8.4,8.5
3483,731 yellow metro studio,2017,Apartamento,61281/AL,41.166727992338664,-8.595625706581199,8.6,8.4,8.5
3484,731 metro studio,2017,Apartamento,61576/AL,41.166751716841375,-8.595650464798052,8.6,8.4,8.5
3485,731 loft bed garden apartment,2017,Apartamento,61617/AL,41.16671702344418,-8.595628151757625,8.6,8.4,8.5
3486,733 loft bed garden apartment,2017,Apartamento,48327/AL,41.1667633930511,-8.59559002758913,8.7,8.4,8.6
3487,733 metro garden apartment,2017,Apartamento,48328/AL,41.166745285818536,-8.595578119220391,8.7,8.4,8.6
3488,733 loft bed metro studio,2017,Apartamento,48526/AL,41.1667504482658,-8.59559770281388,8.7,8.4,8.6
3489,733 blue metro penthouse,2017,Apartamento,48527/AL,41.16675864224139,-8.595574430211464,8.7,8.4,8.6
3490,733 blue metro studio,2017,Apartamento,48656/AL,41.16677184622746,-8.595608571528418,8.7,8.4,8.6
3491,733 metro garden penthouse,2017,Apartamento,48657/AL,41.16677813406039,-8.595585286677386,8.7,8.4,8.6
3492,733 metro studio,2017,Apartamento,49945/AL,41.16673286004813,-8.595587490089361,8.7,8.4,8.6
3493,apartamento prelada,2017,Apartamento,50343/AL,41.17110225305638,-8.637606001636296,9.3,8.4,9.4
3496,apartamento serpa pinto,2017,Apartamento,39740/AL,41.166931511476065,-8.620079433672776,,,
3503,xangô,2017,Moradia,41222/AL,41.16471270515421,-8.610815407787427,6.9,7.0,7.2
3509,apartamento a montealegre,2017,Apartamento,50076/AL,41.16525709203414,-8.617780663951635,7.8,7.3,8.2
3513,casa marquês,2017,Apartamento,40151/AL,41.162509370423216,-8.60699947304779,9.7,8.8,9.7
3519,my home abroad,2017,Estabelecimento de hospedagem,55464/AL,41.16904542667367,-8.649303949364434,8.8,7.4,8.9
3524,casa sao dinis,2017,Moradia,38465/AL,41.16739262064191,-8.621318218027291,9.5,8.9,9.3
3532,casa formosa ap5,2017,Apartamento,46220/AL,41.14744285260079,-8.602834816393454,,,
3541,aparthotel oporto,2017,Apartamento,38593/AL,41.148323932930445,-8.603046721143933,8.5,9.2,8.3
3545,coolhome,2017,Apartamento,49513/AL,41.15373455113345,-8.608610024841342,,,
3546,blue apartment,2017,Apartamento,45467/AL,41.15373549994469,-8.608574646415102,8.5,8.9,8.3
3547,green apartment,2017,Apartamento,50332/AL,41.153735573374775,-8.608556916768151,9.0,8.6,8.7
3548,white apartment,2017,Apartamento,50337/AL,41.153713452205764,-8.608577244415518,8.3,8.8,8.1
3551,casa da oliveira,2017,Apartamento,52621/AL,41.148575745266236,-8.603891635080085,9.7,9.6,9.5
3557,veiga garden house,2017,Apartamento,44302/AL,41.15051401762939,-8.603716238463829,,,
3558,guest4porto av loft,2017,Apartamento,45842/AL,41.15048941059609,-8.603732766707841,9.9,9.2,10.0
3559,warehouse apartment,2017,Apartamento,48370/AL,41.150499862446026,-8.603682095836572,9.2,9.2,9.1
3563,casa vermelha,2017,Apartamento,49559/AL,41.157703742677725,-8.609453293230715,9.2,9.3,9.3
3564,casa alice,2017,Apartamento,45474/AL,41.15853620668495,-8.608915907635474,9.5,9.1,9.7
3566,casa d'anita,2017,Apartamento,49293/AL,41.15374972363268,-8.609588914112823,9.1,9.4,9.0
3567,trindade charming flat@1,2017,Apartamento,53360/AL,41.15379880631038,-8.609587693477176,9.3,9.0,8.6
3568,trindade charming flat@2,2017,Apartamento,53363/AL,41.15379970921866,-8.609599677421139,9.3,9.0,8.7
3569,trindade downtown apartment,2017,Apartamento,54207/AL,41.15372542110624,-8.609589367721984,9.2,9.0,8.7
3570,liiiving in porto | splendid view apartment,2017,Apartamento,57199/AL,41.15371440219166,-8.609603788203616,9.3,9.1,8.4
3571,invicta downtown,2017,Apartamento,58152/AL,41.15373518992183,-8.609589123010073,9.3,9.2,8.8
3572,nuno studio,2017,Apartamento,52254/AL,41.15321207021478,-8.607862912300481,9.3,10.0,9.4
3574,feel porto casa da musica townhouse,2017,Apartamento,45069/AL,41.160414549914414,-8.63483705334174,8.5,7.5,8.7
3578,porto perto,2017,Apartamento,50867/AL,41.142526974356365,-8.613340519809581,9.3,9.7,9.0
3586,porto live n experience - santa catarina 925,2017,Apartamento,60398/AL,41.154374034928416,-8.604891955464764,9.5,9.2,9.2
3593,inoporto,2017,Apartamento,47017/AL,41.15051232831607,-8.604116951990768,9.6,9.6,9.4
3594,porto d'época - 101,2017,Apartamento,57778/AL,41.15051851684288,-8.604089102220073,9.6,9.5,9.4
3596,soft linen balcony,2017,Apartamento,53924/AL,41.150338645319316,-8.60400085914461,,,
3598,oporto view,2017,Apartamento,49294/AL,41.15005457535354,-8.604083036239048,9.7,9.6,9.6
3599,casa da andorinha,2017,Apartamento,59507/AL,41.15007638541759,-8.603993048310262,9.8,9.7,9.6
3604,porto feeling,2017,Apartamento,47401/AL,41.15311206916439,-8.604523203856743,9.5,9.6,9.1
3613,oporto camoes apartments,2017,Apartamento,58856/AL,41.15572037006666,-8.610150337424916,9.5,8.8,9.4
3615,downtown cool apartment - porto,2017,Apartamento,58985/AL,41.15617691238428,-8.610257183945597,8.8,8.2,8.0
3617,casa verde / green house,2017,Apartamento,59425/AL,41.156249445620574,-8.61029624850224,9.7,9.0,9.2
3618,camoes p,2017,Apartamento,59651/AL,41.156255757029996,-8.610325610081608,9.5,9.3,9.6
3619,camoes j,2017,Apartamento,59653/AL,41.15624166201308,-8.610277279115344,9.7,9.4,9.6
3624,camoes apartment,2017,Apartamento,53656/AL,41.15661295232527,-8.609791025432399,9.6,9.3,9.5
3629,porto almada garden,2017,Apartamento,56649/AL,41.15150144056019,-8.611839469510711,,,
3631,porto nautico,2017,Moradia,44984/AL,41.151320084514154,-8.611897268117682,9.3,9.4,8.8
3636,charm garden almada,2017,Estabelecimento de hospedagem,45016/AL,41.150945595014555,-8.611915272721088,-1.0,8.9,7.8
3650,oporto golden apartment,2017,Apartamento,42455/AL,41.1498715592455,-8.609167164831515,9.4,9.6,9.1
3651,aliados town hall porto,2017,Apartamento,47346/AL,41.14989402262989,-8.609208301604678,9.6,9.7,9.3
3653,look at me,2017,Estabelecimento de hospedagem,46479/AL,41.152187640551766,-8.610838171921584,9.5,9.7,9.3
3665,apartment camoes deluxe,2017,Apartamento,53099/AL,41.15538172829334,-8.610265668450792,9.5,9.1,9.5
3667,156 trindade house & terrace,2017,Apartamento,59036/AL,41.15251477163265,-8.61104148338659,8.4,10.0,7.2
3669,loft trindade,2017,Apartamento,39303/AL,41.15258791151975,-8.61030732662199,8.7,9.4,8.1
3672,trindade - oporto apartments group,2017,Apartamento,45585/AL,41.15257488668549,-8.61028832015081,7.6,8.8,7.4
3673,arcelino leite de oliveira,2017,Apartamento,52232/AL,41.15258597365298,-8.61027185264871,6.9,8.8,6.7
3680,airosa,2017,Apartamento,43247/AL,41.16765265761363,-8.63801503180419,,,
3682,apartamento de francos s. joao,2017,Apartamento,45353/AL,41.166788137980035,-8.636714793834425,8.4,8.2,8.7
3683,apartamento de francos arrabida,2017,Apartamento,45368/AL,41.166791007155,-8.636677595535708,8.0,8.2,8.3
3685,almada suite home,2017,Apartamento,48525/AL,41.15007887818932,-8.611895834252536,9.7,10.0,9.6
3688,white almada,2017,Apartamento,53600/AL,41.14987157816062,-8.61188198085356,8.7,9.3,8.3
3696,imperium apartments,2017,Apartamento,38645/AL,41.146355849272744,-8.612052509326334,9.0,9.8,8.8
3700,apartamento na trindade,2017,Apartamento,57185/AL,41.15265341370471,-8.611579021774595,9.4,9.4,9.2
3704,t3 alferes malheiro 177,2017,Apartamento,60695/AL,41.15240978679534,-8.611247661060302,6.8,8.9,6.1
3706,samasal trindade studio 1,2017,Apartamento,58491/AL,41.152321747295616,-8.611075311198517,9.3,9.8,9.4
3707,samasal trindade studio 2,2017,Apartamento,58492/AL,41.15233118158808,-8.611098309778546,9.3,9.8,9.4
3708,samasal trindade studio 3,2017,Apartamento,58493/AL,41.15230542856721,-8.611060693157723,9.3,9.8,9.4
3709,samasal trindade studio 4,2017,Apartamento,58494/AL,41.15229436446197,-8.611071644986437,9.3,9.8,9.4
3710,samasal trindade studio 5,2017,Apartamento,58495/AL,41.15231006964783,-8.611090671066906,9.3,9.8,9.4
3711,samasal trindade studio 6,2017,Apartamento,58497/AL,41.152316556934416,-8.611106083517727,9.3,9.8,9.4
3712,samasal trindade studio 7,2017,Apartamento,58498/AL,41.15232809893719,-8.611123504390001,9.3,9.8,9.4
3716,oporto vintage apartment,2017,Apartamento,50860/AL,41.15224545836031,-8.611013385103485,9.8,9.7,9.5
3724,4 rooms,2017,Apartamento,50083/AL,41.15245997445459,-8.60800163721203,7.5,9.4,7.2
3726,bom-jardim,2017,Apartamento,42782/AL,41.15187297348655,-8.608079541007971,9.5,9.3,9.3
3727,design apartment & douro river,2017,Apartamento,46495/AL,41.151880927402956,-8.608114900733412,9.4,9.1,9.2
3728,burg 606,2017,Apartamento,50606/AL,41.15188642411091,-8.608168523908407,9.0,10.0,8.3
3729,oporto apartments,2017,Apartamento,52195/AL,41.15188167144592,-8.608049975914088,9.3,8.7,8.8
3732,my 2ndhome porto apartment,2017,Apartamento,43040/AL,41.1577790817452,-8.609218510259351,9.2,8.7,9.2
3733,apatrindade,2017,Apartamento,56775/AL,41.15374841012889,-8.610789769681977,9.4,9.2,9.3
3739,oporto lovers,2017,Apartamento,50727/AL,41.159538402065444,-8.60609809092351,9.2,8.9,9.1
3742,bonjardim blue apartment d,2017,Apartamento,40993/AL,41.150318677565444,-8.609391232291589,9.4,9.6,9.1
3743,bonjardim blue apartment f,2017,Apartamento,42588/AL,41.1503247484847,-8.609420903775288,9.5,9.6,9.4
3745,ztf,2017,Apartamento,42940/AL,41.152911909299696,-8.608564139458025,8.8,9.4,8.8
3746,comfy luxury apartment,2017,Apartamento,54040/AL,41.152902508399755,-8.608532945294181,9.2,8.8,8.8
3747,sao bento 163,2017,Apartamento,46846/AL,41.14623965920457,-8.608114580437892,8.9,9.7,8.7
3751,invictus place,2017,Apartamento,54318/AL,41.14624057260704,-8.608085545163686,9.6,10.0,9.6
3752,turra guest house,2017,Apartamento,51756/AL,41.15115869015367,-8.607519248624863,9.6,9.5,9.5
3755,koru one living,2017,Apartamento,48925/AL,41.15048134826107,-8.606743191086213,,,
3756,feel porto downtown essence,2017,Apartamento,51537/AL,41.150496935371436,-8.606776397660463,9.1,9.3,8.7
3758,feel porto downtown city roofs,2017,Apartamento,51544/AL,41.150240492354236,-8.606925493522189,9.1,9.3,8.7
3759,feel porto downtown heaven,2017,Apartamento,51550/AL,41.15026342229599,-8.606911160593151,9.1,9.3,8.7
3761,letheshome apartments,2017,Apartamento,54982/AL,41.14663015221446,-8.609011621838787,9.7,9.9,9.3
3762,letheshome apartments,2017,Apartamento,54987/AL,41.146536030660336,-8.608957992412122,9.7,9.9,9.3
3763,letheshome apartments,2017,Apartamento,54991/AL,41.14666030686116,-8.60897874617893,9.7,9.9,9.3
3764,letheshome apartments,2017,Apartamento,54994/AL,41.14661398013807,-8.608947209602304,9.7,9.9,9.3
3765,letheshome apartments,2017,Apartamento,55009/AL,41.146566903222514,-8.60892417738068,9.7,9.9,9.3
3766,letheshome apartments,2017,Apartamento,55014/AL,41.14647463249733,-8.60894147447369,9.7,9.9,9.3
3767,letheshome apartments,2017,Apartamento,55015/AL,41.14649766327162,-8.608902874812252,9.7,9.9,9.3
3768,letheshome apartments,2017,Apartamento,55018/AL,41.1464318833615,-8.60890901817479,9.7,9.9,9.3
3769,letheshome apartments,2017,Apartamento,55021/AL,41.14666434854128,-8.60903834385851,9.7,9.9,9.3
3778,bonjardim - oporto invite,2017,Apartamento,56558/AL,41.1496950034345,-8.609397627724762,8.7,9.2,8.3
3779,bonjardim - oporto invite,2017,Apartamento,56565/AL,41.14969721370685,-8.609367306690674,8.7,9.2,8.3
3780,bonjardim- oporto invite,2017,Apartamento,56569/AL,41.14969941162675,-8.609339744456497,8.7,9.2,8.3
3781,bonjardim - oporto invite,2017,Apartamento,56572/AL,41.14970643968037,-8.609368555390859,8.7,9.2,8.3
3789,almada wine house,2017,Apartamento,57616/AL,41.14744207877518,-8.612055908443942,9.4,9.8,9.1
3801,palacio do comércio apartments,2017,Apartamento,50470/AL,41.15048781647012,-8.607136853926418,,,
3802,palacio do comércio apartments,2017,Apartamento,50854/AL,41.15050617632695,-8.607190883367426,,,
3805,t1 bolhao 47,2017,Apartamento,55422/AL,41.15073760756403,-8.607912804092166,8.4,9.4,7.8
3807,spot apartments bolhao,2017,Apartamento,55518/AL,41.15105993561359,-8.607636575747257,9.6,9.5,9.5
3815,oporto downtown main str (s.catarina) + free park,2017,Apartamento,52074/AL,41.15458531417413,-8.604896961504023,,,
3818,cozy flat with balcony,2017,Apartamento,51506/AL,41.15908964103872,-8.608574290476524,9.2,8.3,9.3
3819,homeintown almada,2017,Apartamento,61007/AL,41.15213412844433,-8.61174504275816,,,
3820,oporto almada terrace,2017,Apartamento,61100/AL,41.15213450847851,-8.611797053224704,10.0,10.0,10.0
3823,trindade tower,2017,Apartamento,47019/AL,41.153780329611536,-8.607415507720729,8.9,8.9,9.0
3825,liiiving in porto | divine view apartment,2017,Apartamento,59146/AL,41.15372458591854,-8.607414475494336,9.8,9.4,9.7
3826,casa das musas,2017,Apartamento,38676/AL,41.1559083123816,-8.60967656077595,9.5,8.9,9.5
3829,charming trindade 1,2017,Apartamento,45609/AL,41.15629350342444,-8.609361815546798,8.9,8.4,8.7
3830,charming trindade 2,2017,Apartamento,45614/AL,41.156273847033155,-8.609362067108218,8.9,8.4,8.7
3831,home at porto - serralves,2017,Apartamento,45266/AL,41.164627431512635,-8.658266088089515,9.4,8.7,9.7
3833,main avenue flat,2017,Apartamento,49892/AL,41.14912469648735,-8.611893927686122,,,
3837,porto central,2017,Apartamento,50045/AL,41.1483429634403,-8.609721532917595,8.8,9.7,8.4
3844,residences wine,2017,Apartamento,55461/AL,41.161987958693636,-8.606479299239279,8.9,8.2,9.1
3846,oporto rooftop,2017,Apartamento,42781/AL,41.15025983787622,-8.608451312186594,8.9,9.4,8.8
3847,oporto guest down town fernandes tomas,2017,Apartamento,43715/AL,41.15022105186927,-8.60846876148392,9.2,9.7,8.9
3849,family's hut,2017,Apartamento,54571/AL,41.15024813971718,-8.608471715553167,9.2,9.5,9.3
3850,porto stanza,2017,Apartamento,60326/AL,41.15634197358493,-8.609807247381623,9.0,9.2,8.8
3851,pinpoint porto apartment,2017,Apartamento,48383/AL,41.1506276302448,-8.60665547221703,9.3,9.9,9.2
3852,kubrick duplex apartment,2017,Apartamento,55182/AL,41.14998030673519,-8.603275933296587,7.9,8.6,7.7
3853,reurban flats - santa catarina #1,2017,Apartamento,51561/AL,41.15306213249669,-8.604910935631173,8.9,8.8,8.6
